% program   : RTKLIB ver.2.4.3
% inp file  : MP1_2024-09-10T1100/gnss_log_2024_09_10_11_00_57.24o
% inp file  : nav/BRD400DLR_S_20242540000_01D_MN.rnx
% obs start : 2024/09/10 09:01:15.0 GPST (week2331 205275.0s)
% obs end   : 2024/09/10 11:56:59.0 GPST (week2331 215819.0s)
% pos mode  : Single
% elev mask : 15.0 deg
% ionos opt : Broadcast
% tropo opt : Saastamoinen
% ephemeris : Broadcast
% navi sys  : GPS Galileo SBAS
%
% (lat/lon/height=WGS84/ellipsoidal,Q=1:fix,2:float,3:sbas,4:dgps,5:single,6:ppp,ns=# of satellites)
%  GPST                  latitude(deg) longitude(deg)  height(m)   Q  ns   sdn(m)   sde(m)   sdu(m)  sdne(m)  sdeu(m)  sdun(m) age(s)  ratio
2024/09/10 09:01:15.000   69.212377294   15.858700652    55.6472   5  13   2.1238   1.6950   5.4249   1.0850   0.5720   0.2907   0.00    0.0
2024/09/10 09:01:16.000   69.212347063   15.858680448    56.8511   5  14   1.8888   1.6920   5.0220   1.0391   0.7294   1.4417   0.00    0.0
2024/09/10 09:01:17.000   69.212362826   15.858579029    54.4743   5  14   1.8887   1.6919   5.0226   1.0390   0.7292   1.4417   0.00    0.0
2024/09/10 09:01:18.000   69.212392423   15.858651282    62.1156   5  13   2.1238   1.6948   5.4276   1.0843   0.5719   0.2862   0.00    0.0
2024/09/10 09:01:19.000   69.212354311   15.858643028    66.7382   5  13   2.1237   1.6947   5.4286   1.0841   0.5719   0.2846   0.00    0.0
2024/09/10 09:01:20.000   69.212353322   15.858603422    68.6265   5  14   2.0920   1.6877   5.0338   1.1095   0.7993  -0.8149   0.00    0.0
2024/09/10 09:01:22.000   69.212388263   15.858711991    58.0757   5  13   2.1131   1.8178   5.0386   1.1965   0.7142  -0.8505   0.00    0.0
2024/09/10 09:01:23.000   69.212386628   15.858623106    45.1689   5  13   2.3315   1.7498   5.6627   0.8678   1.3557  -1.8259   0.00    0.0
2024/09/10 09:01:24.000   69.212364402   15.858698717    58.2987   5  14   2.0919   1.6874   5.0361   1.1086   0.7995  -0.8178   0.00    0.0
2024/09/10 09:01:25.000   69.212335320   15.858636149    63.4424   5  14   2.0919   1.6874   5.0367   1.1084   0.7996  -0.8186   0.00    0.0
2024/09/10 09:01:26.000   69.212379412   15.858645430    58.0562   5  14   2.0919   1.6873   5.0373   1.1082   0.7996  -0.8193   0.00    0.0
2024/09/10 09:01:27.000   69.212354179   15.858631462    58.1086   5  14   2.0919   1.6873   5.0379   1.1079   0.7997  -0.8200   0.00    0.0
2024/09/10 09:01:28.000   69.212345315   15.858596837    55.3329   5  14   2.0918   1.6872   5.0385   1.1077   0.7997  -0.8208   0.00    0.0
2024/09/10 09:01:29.000   69.212343257   15.858581255    50.6801   5  14   2.0918   1.6871   5.0391   1.1075   0.7998  -0.8215   0.00    0.0
2024/09/10 09:01:30.000   69.212390965   15.858682278    59.1846   5  14   2.0918   1.6871   5.0397   1.1073   0.7998  -0.8222   0.00    0.0
2024/09/10 09:01:31.000   69.212365049   15.858610968    52.7427   5  14   2.0918   1.6870   5.0403   1.1071   0.7999  -0.8229   0.00    0.0
2024/09/10 09:01:32.000   69.212366699   15.858668567    61.8598   5  13   2.3318   1.7494   5.6665   0.8647   1.3561  -1.8291   0.00    0.0
2024/09/10 09:01:33.000   69.212378068   15.858684243    55.9621   5  13   2.3318   1.7494   5.6669   0.8643   1.3562  -1.8294   0.00    0.0
2024/09/10 09:01:34.000   69.212401466   15.858668656    52.4701   5  14   2.0917   1.6868   5.0420   1.1064   0.8000  -0.8251   0.00    0.0
2024/09/10 09:01:35.000   69.212372038   15.858699769    56.5061   5  14   2.0917   1.6868   5.0426   1.1062   0.8000  -0.8259   0.00    0.0
2024/09/10 09:01:36.000   69.212384610   15.858676616    57.9416   5  14   2.0917   1.6867   5.0432   1.1060   0.8001  -0.8266   0.00    0.0
2024/09/10 09:01:37.000   69.212429835   15.858724903    62.1629   5  14   2.0917   1.6866   5.0438   1.1058   0.8001  -0.8273   0.00    0.0
2024/09/10 09:01:38.000   69.212405318   15.858609391    56.4077   5  13   2.4071   1.7472   5.3607   1.3288   1.2116   1.2147   0.00    0.0
2024/09/10 09:01:39.000   69.212411555   15.858619450    55.0475   5  12   2.4937   1.9360   5.3712   1.5194   1.3207   1.2997   0.00    0.0
2024/09/10 09:01:40.000   69.212408763   15.858665683    58.4487   5  14   2.0863   1.7413   5.1454   1.2631   1.2955   1.8101   0.00    0.0
2024/09/10 09:01:41.000   69.212369341   15.858594576    50.2505   5  13   2.4067   1.7469   5.3614   1.3279   1.2107   1.2112   0.00    0.0
2024/09/10 09:01:42.000   69.212365854   15.858603166    50.9485   5  14   2.2367   1.6757   4.8508   1.1509   0.5820  -0.7508   0.00    0.0
2024/09/10 09:01:43.000   69.212368770   15.858629775    54.3139   5  14   2.2367   1.6756   4.8513   1.1507   0.5820  -0.7518   0.00    0.0
2024/09/10 09:01:44.000   69.212348053   15.858579991    55.4393   5  14   2.2367   1.6756   4.8518   1.1504   0.5819  -0.7528   0.00    0.0
2024/09/10 09:01:45.000   69.212355808   15.858596321    52.9422   5  14   2.2367   1.6755   4.8524   1.1502   0.5819  -0.7538   0.00    0.0
2024/09/10 09:01:46.000   69.212352950   15.858563694    51.6861   5  14   2.2366   1.6754   4.8529   1.1500   0.5818  -0.7548   0.00    0.0
2024/09/10 09:01:47.000   69.212338959   15.858535915    54.4615   5  14   2.2366   1.6753   4.8535   1.1498   0.5818  -0.7559   0.00    0.0
2024/09/10 09:01:48.000   69.212342920   15.858566935    57.2212   5  14   2.2366   1.6753   4.8540   1.1495   0.5817  -0.7569   0.00    0.0
2024/09/10 09:01:49.000   69.212327825   15.858565983    55.3691   5  14   2.2366   1.6752   4.8546   1.1493   0.5817  -0.7579   0.00    0.0
2024/09/10 09:01:50.000   69.212306853   15.858567857    57.6859   5  14   2.2365   1.6751   4.8551   1.1491   0.5817  -0.7589   0.00    0.0
2024/09/10 09:01:51.000   69.212310482   15.858576627    64.2718   5  14   2.2365   1.6751   4.8556   1.1488   0.5816  -0.7599   0.00    0.0
2024/09/10 09:01:52.000   69.212314970   15.858595629    60.5571   5  14   2.2365   1.6750   4.8562   1.1486   0.5816  -0.7609   0.00    0.0
2024/09/10 09:01:53.000   69.212329192   15.858560033    52.0320   5  14   2.2365   1.6749   4.8567   1.1484   0.5815  -0.7619   0.00    0.0
2024/09/10 09:01:54.000   69.212354569   15.858584845    54.4346   5  14   2.2364   1.6749   4.8573   1.1481   0.5815  -0.7629   0.00    0.0
2024/09/10 09:01:55.000   69.212345153   15.858601731    52.9639   5  14   2.2364   1.6748   4.8578   1.1479   0.5814  -0.7639   0.00    0.0
2024/09/10 09:01:56.000   69.212386575   15.858604642    54.7623   5  14   2.2364   1.6747   4.8583   1.1477   0.5814  -0.7649   0.00    0.0
2024/09/10 09:01:57.000   69.212403296   15.858616754    51.8062   5  14   2.2364   1.6747   4.8589   1.1474   0.5813  -0.7659   0.00    0.0
2024/09/10 09:01:58.000   69.212393409   15.858635297    56.8212   5  13   2.5364   1.6761   4.8925   1.1103   0.5462   0.3018   0.00    0.0
2024/09/10 09:01:59.000   69.212373345   15.858607462    55.9132   5  14   2.2363   1.6745   4.8600   1.1470   0.5812  -0.7679   0.00    0.0
2024/09/10 09:02:00.000   69.212369543   15.858600872    52.3614   5  13   2.2364   1.8415   5.1223   1.1405  -0.9492  -0.7492   0.00    0.0
2024/09/10 09:02:01.000   69.212349197   15.858588481    51.9823   5  13   2.2363   1.8415   5.1227   1.1403  -0.9492  -0.7503   0.00    0.0
2024/09/10 09:02:02.000   69.212344781   15.858607812    48.9120   5  13   2.1530   1.8774   4.9347   0.9101  -1.1617  -1.2683   0.00    0.0
2024/09/10 09:02:03.000   69.212366920   15.858609259    50.4933   5  13   2.1530   1.8774   4.9354   0.9098  -1.1618  -1.2684   0.00    0.0
2024/09/10 09:02:04.000   69.212366565   15.858661636    52.9386   5  14   2.0211   1.8328   4.9136   1.0626  -1.0762  -1.3995   0.00    0.0
2024/09/10 09:02:05.000   69.212364181   15.858578064    50.5574   5  14   2.0211   1.8327   4.9142   1.0624  -1.0761  -1.3998   0.00    0.0
2024/09/10 09:02:06.000   69.212362424   15.858579046    50.9844   5  14   2.0211   1.8327   4.9149   1.0623  -1.0759  -1.4001   0.00    0.0
2024/09/10 09:02:07.000   69.212335240   15.858629587    53.1098   5  14   2.0211   1.8327   4.9155   1.0621  -1.0757  -1.4004   0.00    0.0
2024/09/10 09:02:08.000   69.212375192   15.858621873    54.8797   5  14   2.0211   1.8326   4.9161   1.0619  -1.0756  -1.4007   0.00    0.0
2024/09/10 09:02:09.000   69.212340941   15.858574079    55.0565   5  14   2.0212   1.8326   4.9167   1.0617  -1.0754  -1.4010   0.00    0.0
2024/09/10 09:02:10.000   69.212377687   15.858669370    50.2917   5  14   2.0212   1.8326   4.9174   1.0615  -1.0752  -1.4013   0.00    0.0
2024/09/10 09:02:11.000   69.212353114   15.858538578    51.9610   5  13   2.0395   1.9614   4.9312   1.1476  -1.1864  -1.4362   0.00    0.0
2024/09/10 09:02:12.000   69.212379451   15.858579222    51.0929   5  12   2.1838   1.9881   4.9512   1.0310  -1.2447  -1.3119   0.00    0.0
2024/09/10 09:02:13.000   69.212355087   15.858594928    55.0982   5  13   1.7986   1.9843   4.6699   0.9540  -1.1602   0.5647   0.00    0.0
2024/09/10 09:02:14.000   69.212353370   15.858583003    50.7192   5  13   1.7987   1.9843   4.6705   0.9539  -1.1602   0.5652   0.00    0.0
2024/09/10 09:02:15.000   69.212369578   15.858612226    55.4427   5  14   1.7770   1.8756   4.6675   0.8541  -1.1073   0.6095   0.00    0.0
2024/09/10 09:02:16.000   69.212384971   15.858670691    54.5720   5  13   2.1531   1.8772   4.9447   0.9067  -1.1623  -1.2692   0.00    0.0
2024/09/10 09:02:17.000   69.212346568   15.858605909    52.4482   5  14   1.7771   1.8756   4.6687   0.8538  -1.1076   0.6100   0.00    0.0
2024/09/10 09:02:18.000   69.212384803   15.858650667    56.3985   5  14   1.7771   1.8756   4.6693   0.8537  -1.1077   0.6103   0.00    0.0
2024/09/10 09:02:19.000   69.212346003   15.858546385    53.1805   5  14   1.7771   1.8756   4.6699   0.8535  -1.1079   0.6105   0.00    0.0
2024/09/10 09:02:20.000   69.212364934   15.858627258    50.9729   5  14   1.7771   1.8756   4.6705   0.8534  -1.1080   0.6108   0.00    0.0
2024/09/10 09:02:21.000   69.212362181   15.858579122    59.4796   5  14   1.7771   1.8756   4.6711   0.8533  -1.1082   0.6110   0.00    0.0
2024/09/10 09:02:22.000   69.212351184   15.858614455    53.4648   5  14   1.7772   1.8756   4.6718   0.8531  -1.1084   0.6113   0.00    0.0
2024/09/10 09:02:23.000   69.212349602   15.858613340    61.0853   5  14   1.7772   1.8756   4.6724   0.8530  -1.1085   0.6115   0.00    0.0
2024/09/10 09:02:24.000   69.212348429   15.858638968    60.0429   5  14   1.7772   1.8755   4.6730   0.8529  -1.1087   0.6118   0.00    0.0
2024/09/10 09:02:25.000   69.212361322   15.858638655    58.8230   5  14   1.7772   1.8755   4.6736   0.8527  -1.1088   0.6121   0.00    0.0
2024/09/10 09:02:26.000   69.212379445   15.858669924    61.1813   5  14   1.7773   1.8755   4.6742   0.8526  -1.1090   0.6123   0.00    0.0
2024/09/10 09:02:27.000   69.212365892   15.858630150    53.1013   5  14   1.7773   1.8755   4.6748   0.8525  -1.1091   0.6126   0.00    0.0
2024/09/10 09:02:28.000   69.212376099   15.858717682    57.7204   5  14   1.7773   1.8755   4.6754   0.8523  -1.1093   0.6128   0.00    0.0
2024/09/10 09:02:29.000   69.212364088   15.858685836    59.7667   5  14   1.7773   1.8755   4.6760   0.8522  -1.1095   0.6131   0.00    0.0
2024/09/10 09:02:30.000   69.212366626   15.858638260    59.3996   5  14   1.7773   1.8755   4.6767   0.8521  -1.1096   0.6133   0.00    0.0
2024/09/10 09:02:31.000   69.212364388   15.858621326    54.2532   5  14   1.7774   1.8755   4.6773   0.8519  -1.1098   0.6136   0.00    0.0
2024/09/10 09:02:32.000   69.212360993   15.858616065    58.8160   5  14   1.7774   1.8755   4.6779   0.8518  -1.1099   0.6139   0.00    0.0
2024/09/10 09:02:33.000   69.212337598   15.858544386    62.2445   5  13   1.7994   1.9842   4.6816   0.9522  -1.1591   0.5736   0.00    0.0
2024/09/10 09:02:34.000   69.212359588   15.858657679    61.9931   5  14   1.7774   1.8755   4.6791   0.8515  -1.1102   0.6144   0.00    0.0
2024/09/10 09:02:35.000   69.212341469   15.858561181    58.6158   5  13   1.8834   2.0705   4.7564   1.1275  -0.6975   0.9527   0.00    0.0
2024/09/10 09:02:36.000   69.212350955   15.858605076    56.1847   5  14   1.7775   1.8754   4.6803   0.8512  -1.1106   0.6149   0.00    0.0
2024/09/10 09:02:37.000   69.212358784   15.858620822    52.0252   5  14   1.7775   1.8754   4.6810   0.8511  -1.1107   0.6152   0.00    0.0
2024/09/10 09:02:38.000   69.212378233   15.858864954    61.2089   5  13   1.9630   2.9097   4.8207   1.6054  -1.9474  -0.7610   0.00    0.0
2024/09/10 09:02:39.000   69.212358428   15.858586515    56.8361   5  13   1.7996   1.9841   4.6852   0.9517  -1.1587   0.5763   0.00    0.0
2024/09/10 09:02:40.000   69.212364179   15.858668841    58.6463   5  13   1.7996   1.9841   4.6857   0.9516  -1.1587   0.5767   0.00    0.0
2024/09/10 09:02:41.000   69.212354562   15.858582732    54.1725   5  13   1.7996   1.9841   4.6863   0.9515  -1.1586   0.5772   0.00    0.0
2024/09/10 09:02:42.000   69.212338973   15.858625358    61.2236   5  13   1.7997   1.9841   4.6869   0.9514  -1.1586   0.5776   0.00    0.0
2024/09/10 09:02:43.000   69.212348827   15.858622787    64.6486   5  13   1.7997   1.9841   4.6875   0.9513  -1.1585   0.5781   0.00    0.0
2024/09/10 09:02:44.000   69.212357867   15.858648128    59.5718   5  13   1.7997   1.9841   4.6881   0.9513  -1.1585   0.5785   0.00    0.0
2024/09/10 09:02:45.000   69.212362078   15.858634287    59.5271   5  13   1.7998   1.9841   4.6887   0.9512  -1.1584   0.5790   0.00    0.0
2024/09/10 09:02:46.000   69.212358693   15.858679074    56.8710   5  14   1.7126   1.9518   4.6192   1.0497  -1.0266  -0.3333   0.00    0.0
2024/09/10 09:02:47.000   69.212339087   15.858580963    56.7927   5  14   1.7126   1.9518   4.6196   1.0496  -1.0263  -0.3335   0.00    0.0
2024/09/10 09:02:48.000   69.212355301   15.858608134    62.2991   5  14   1.7127   1.9518   4.6200   1.0496  -1.0261  -0.3337   0.00    0.0
2024/09/10 09:02:49.000   69.212351568   15.858609680    60.8437   5  14   1.7127   1.9518   4.6205   1.0495  -1.0258  -0.3338   0.00    0.0
2024/09/10 09:02:50.000   69.212349970   15.858581638    57.2900   5  14   1.7127   1.9517   4.6209   1.0494  -1.0255  -0.3340   0.00    0.0
2024/09/10 09:02:51.000   69.212331136   15.858521518    55.9642   5  14   1.7127   1.9517   4.6213   1.0494  -1.0253  -0.3342   0.00    0.0
2024/09/10 09:02:52.000   69.212332640   15.858561987    58.2699   5  14   1.7127   1.9517   4.6217   1.0493  -1.0250  -0.3343   0.00    0.0
2024/09/10 09:02:53.000   69.212335504   15.858607966    60.0608   5  14   1.7128   1.9517   4.6221   1.0492  -1.0248  -0.3345   0.00    0.0
2024/09/10 09:02:54.000   69.212348461   15.858589070    56.8075   5  14   1.7128   1.9517   4.6225   1.0492  -1.0245  -0.3347   0.00    0.0
2024/09/10 09:02:55.000   69.212353601   15.858604641    59.2019   5  14   1.7128   1.9517   4.6229   1.0491  -1.0242  -0.3348   0.00    0.0
2024/09/10 09:02:56.000   69.212336225   15.858570303    54.8652   5  14   1.7128   1.9517   4.6233   1.0491  -1.0240  -0.3350   0.00    0.0
2024/09/10 09:02:57.000   69.212356496   15.858610633    52.5678   5  14   1.7128   1.9517   4.6237   1.0490  -1.0237  -0.3352   0.00    0.0
2024/09/10 09:02:58.000   69.212321017   15.858498475    58.7719   5  14   1.7129   1.9516   4.6241   1.0489  -1.0234  -0.3353   0.00    0.0
2024/09/10 09:02:59.000   69.212373520   15.858607985    52.5955   5  13   2.0404   1.9599   4.9586   1.1397  -1.1695  -1.4479   0.00    0.0
2024/09/10 09:03:00.000   69.212369959   15.858576537    60.1002   5  13   2.0404   1.9598   4.9591   1.1395  -1.1691  -1.4481   0.00    0.0
2024/09/10 09:03:01.000   69.212363299   15.858574942    57.3982   5  13   2.0405   1.9598   4.9597   1.1394  -1.1688  -1.4483   0.00    0.0
2024/09/10 09:03:02.000   69.212318850   15.858515497    56.4188   5  13   1.8004   1.9840   4.6986   0.9496  -1.1574   0.5865   0.00    0.0
2024/09/10 09:03:03.000   69.212348523   15.858575403    58.3046   5  13   1.8004   1.9840   4.6992   0.9496  -1.1573   0.5870   0.00    0.0
2024/09/10 09:03:04.000   69.212323240   15.858417013    55.0857   5  12   2.3936   2.1002   4.9923   1.3366  -1.0068  -1.1135   0.00    0.0
2024/09/10 09:03:05.000   69.212357116   15.858539588    51.2032   5  13   2.1534   1.8764   4.9798   0.8946  -1.1642  -1.2722   0.00    0.0
2024/09/10 09:03:06.000   69.212382712   15.858586590    55.0866   5  13   1.8005   1.9840   4.7010   0.9493  -1.1571   0.5883   0.00    0.0
2024/09/10 09:03:07.000   69.212397013   15.858623284    55.6522   5  13   1.8006   1.9840   4.7015   0.9492  -1.1571   0.5887   0.00    0.0
2024/09/10 09:03:08.000   69.212341125   15.858560532    56.0069   5  12   2.1844   1.9871   4.9887   1.0192  -1.2347  -1.3090   0.00    0.0
2024/09/10 09:03:09.000   69.212354665   15.858591627    54.5864   5  13   2.0406   1.9595   4.9642   1.1380  -1.1658  -1.4503   0.00    0.0
2024/09/10 09:03:10.000   69.212375503   15.858622456    56.4415   5  12   2.0782   2.0896   4.9759   1.0047  -1.2649  -1.4047   0.00    0.0
2024/09/10 09:03:11.000   69.212378680   15.858570085    50.6081   5  13   2.0407   1.9595   4.9653   1.1377  -1.1651  -1.4507   0.00    0.0
2024/09/10 09:03:12.000   69.212378576   15.858560579    53.2257   5  13   2.0407   1.9594   4.9659   1.1375  -1.1647  -1.4510   0.00    0.0
2024/09/10 09:03:13.000   69.212380853   15.858617662    58.7209   5  13   2.0407   1.9594   4.9665   1.1374  -1.1644  -1.4512   0.00    0.0
2024/09/10 09:03:14.000   69.212356304   15.858585118    53.0137   5  13   2.0407   1.9594   4.9670   1.1372  -1.1640  -1.4515   0.00    0.0
2024/09/10 09:03:15.000   69.212373494   15.858619738    61.8268   5  12   2.0781   2.0897   4.9786   1.0038  -1.2628  -1.4062   0.00    0.0
2024/09/10 09:03:16.000   69.212352650   15.858590730    50.6814   5  13   2.0408   1.9593   4.9682   1.1369  -1.1633  -1.4519   0.00    0.0
2024/09/10 09:03:17.000   69.212387872   15.858609046    53.3700   5  13   2.0408   1.9593   4.9687   1.1367  -1.1629  -1.4522   0.00    0.0
2024/09/10 09:03:18.000   69.212360050   15.858592620    49.8493   5  13   2.0408   1.9592   4.9693   1.1365  -1.1625  -1.4524   0.00    0.0
2024/09/10 09:03:19.000   69.212351706   15.858553714    56.6480   5  13   2.0408   1.9592   4.9698   1.1364  -1.1622  -1.4527   0.00    0.0
2024/09/10 09:03:20.000   69.212370996   15.858600438    55.6288   5  13   2.0408   1.9592   4.9704   1.1362  -1.1618  -1.4529   0.00    0.0
2024/09/10 09:03:21.000   69.212373606   15.858616039    57.5563   5  13   2.0409   1.9591   4.9710   1.1360  -1.1614  -1.4531   0.00    0.0
2024/09/10 09:03:22.000   69.212356886   15.858533932    54.8097   5  13   2.0409   1.9591   4.9715   1.1359  -1.1611  -1.4534   0.00    0.0
2024/09/10 09:03:23.000   69.212361993   15.858572560    61.2582   5  13   2.0409   1.9591   4.9721   1.1357  -1.1607  -1.4536   0.00    0.0
2024/09/10 09:03:24.000   69.212376282   15.858610830    54.5669   5  13   2.0409   1.9590   4.9726   1.1355  -1.1603  -1.4539   0.00    0.0
2024/09/10 09:03:25.000   69.212345428   15.858547607    57.9449   5  13   2.0409   1.9590   4.9732   1.1353  -1.1599  -1.4541   0.00    0.0
2024/09/10 09:03:26.000   69.212339961   15.858596707    60.8320   5  13   2.0410   1.9590   4.9738   1.1352  -1.1596  -1.4543   0.00    0.0
2024/09/10 09:03:27.000   69.212351235   15.858591398    61.4778   5  13   2.0410   1.9590   4.9743   1.1350  -1.1592  -1.4546   0.00    0.0
2024/09/10 09:03:28.000   69.212351855   15.858562853    54.5679   5  13   2.0410   1.9589   4.9749   1.1348  -1.1588  -1.4548   0.00    0.0
2024/09/10 09:03:29.000   69.212375118   15.858559384    57.6727   5  12   2.1846   1.9867   5.0028   1.0146  -1.2308  -1.3079   0.00    0.0
2024/09/10 09:03:30.000   69.212352514   15.858501024    54.2342   5  12   2.1846   1.9867   5.0034   1.0144  -1.2306  -1.3078   0.00    0.0
2024/09/10 09:03:31.000   69.212388223   15.858566321    51.6633   5  12   2.1846   1.9867   5.0041   1.0142  -1.2304  -1.3078   0.00    0.0
2024/09/10 09:03:32.000   69.212386470   15.858529969    55.0658   5  13   2.0411   1.9588   4.9771   1.1342  -1.1573  -1.4558   0.00    0.0
2024/09/10 09:03:33.000   69.212340022   15.858524183    58.4188   5  12   2.0780   2.0902   4.9882   1.0008  -1.2551  -1.4119   0.00    0.0
2024/09/10 09:03:34.000   69.212343284   15.858550191    60.0396   5  13   2.0411   1.9587   4.9782   1.1338  -1.1566  -1.4562   0.00    0.0
2024/09/10 09:03:35.000   69.212374983   15.858581750    51.6725   5  13   2.0412   1.9587   4.9788   1.1337  -1.1562  -1.4565   0.00    0.0
2024/09/10 09:03:36.000   69.212382186   15.858595986    52.2044   5  13   2.0412   1.9587   4.9794   1.1335  -1.1558  -1.4567   0.00    0.0
2024/09/10 09:03:37.000   69.212369264   15.858580669    55.3615   5  13   2.0412   1.9586   4.9799   1.1333  -1.1554  -1.4569   0.00    0.0
2024/09/10 09:03:38.000   69.212386706   15.858609219    51.4341   5  13   2.0412   1.9586   4.9805   1.1331  -1.1551  -1.4572   0.00    0.0
2024/09/10 09:03:39.000   69.212364671   15.858596213    50.3644   5  13   2.0412   1.9586   4.9810   1.1330  -1.1547  -1.4574   0.00    0.0
2024/09/10 09:03:40.000   69.212377131   15.858630330    56.2726   5  13   2.0413   1.9585   4.9816   1.1328  -1.1543  -1.4577   0.00    0.0
2024/09/10 09:03:41.000   69.212346956   15.858549473    62.9928   5  13   2.0413   1.9585   4.9821   1.1326  -1.1539  -1.4579   0.00    0.0
2024/09/10 09:03:42.000   69.212373172   15.858525063    52.6763   5  13   2.0413   1.9585   4.9827   1.1325  -1.1536  -1.4581   0.00    0.0
2024/09/10 09:03:43.000   69.212355246   15.858557850    62.9051   5  13   2.0413   1.9584   4.9833   1.1323  -1.1532  -1.4584   0.00    0.0
2024/09/10 09:03:44.000   69.212342562   15.858476751    56.6372   5  13   2.0413   1.9584   4.9838   1.1321  -1.1528  -1.4586   0.00    0.0
2024/09/10 09:03:45.000   69.212382801   15.858554337    47.7513   5  12   2.0780   2.0905   4.9946   0.9987  -1.2498  -1.4156   0.00    0.0
2024/09/10 09:03:46.000   69.212378238   15.858572436    52.8641   5  13   2.0414   1.9583   4.9849   1.1318  -1.1520  -1.4591   0.00    0.0
2024/09/10 09:03:47.000   69.212385333   15.858568769    51.6015   5  13   2.0414   1.9583   4.9855   1.1316  -1.1517  -1.4593   0.00    0.0
2024/09/10 09:03:48.000   69.212351455   15.858483225    55.6682   5  13   1.8021   1.9837   4.7255   0.9455  -1.1545   0.6070   0.00    0.0
2024/09/10 09:03:49.000   69.212353037   15.858568906    49.9592   5  12   1.9551   2.0153   5.0663   1.0785  -0.8270   1.3239   0.00    0.0
2024/09/10 09:03:50.000   69.212348945   15.858585571    55.9992   5  13   1.9221   1.8975   5.0664   0.9592  -0.8519   1.3156   0.00    0.0
2024/09/10 09:03:51.000   69.212349806   15.858621538    57.2480   5  13   1.9221   1.8975   5.0668   0.9590  -0.8522   1.3157   0.00    0.0
2024/09/10 09:03:52.000   69.212320873   15.858557637    66.0412   5  13   1.9221   1.8974   5.0673   0.9589  -0.8525   1.3157   0.00    0.0
2024/09/10 09:03:53.000   69.212374285   15.858613903    57.7875   5  12   2.2489   1.8978   5.3773   0.9827  -0.8938  -0.6067   0.00    0.0
2024/09/10 09:03:54.000   69.212300617   15.858514595    60.4634   5  12   1.9552   2.0152   5.0687   1.0781  -0.8267   1.3246   0.00    0.0
2024/09/10 09:03:55.000   69.212299477   15.858520439    60.9558   5  12   1.9553   2.0152   5.0692   1.0781  -0.8267   1.3248   0.00    0.0
2024/09/10 09:03:56.000   69.212339094   15.858575842    55.5632   5  12   2.2488   1.8978   5.3791   0.9819  -0.8942  -0.6078   0.00    0.0
2024/09/10 09:03:57.000   69.212318253   15.858607621    63.7218   5  13   1.9221   1.8974   5.0697   0.9581  -0.8541   1.3158   0.00    0.0
2024/09/10 09:03:58.000   69.212334964   15.858619815    66.2346   5  13   1.9221   1.8973   5.0701   0.9580  -0.8544   1.3158   0.00    0.0
2024/09/10 09:03:59.000   69.212347510   15.858616266    51.6075   5  12   2.2488   1.8977   5.3809   0.9812  -0.8946  -0.6088   0.00    0.0
2024/09/10 09:04:00.000   69.212372992   15.858596723    52.3721   5  12   2.2488   1.8977   5.3815   0.9809  -0.8947  -0.6091   0.00    0.0
2024/09/10 09:04:02.000   69.212387829   15.858597378    50.8868   5  14   2.0894   1.6780   5.1254   1.0738   0.8053  -0.9292   0.00    0.0
2024/09/10 09:04:03.000   69.212368982   15.858571723    45.7546   5  13   2.1120   1.8119   5.1264   1.1677   0.7742  -0.9417   0.00    0.0
2024/09/10 09:04:04.000   69.212385114   15.858649512    51.5108   5  14   2.0894   1.6779   5.1264   1.0734   0.8053  -0.9305   0.00    0.0
2024/09/10 09:04:05.000   69.212399607   15.858675041    51.1481   5  14   2.0894   1.6778   5.1270   1.0731   0.8054  -0.9312   0.00    0.0
2024/09/10 09:04:06.000   69.212367812   15.858550169    51.6420   5  13   2.1120   1.8117   5.1280   1.1671   0.7753  -0.9433   0.00    0.0
2024/09/10 09:04:07.000   69.212390211   15.858730058    55.8763   5  14   2.0894   1.6777   5.1281   1.0727   0.8054  -0.9326   0.00    0.0
2024/09/10 09:04:08.000   69.212372608   15.858577850    56.0129   5  13   2.1120   1.8117   5.1290   1.1668   0.7760  -0.9444   0.00    0.0
2024/09/10 09:04:09.000   69.212365908   15.858622879    55.1408   5  13   2.1120   1.8116   5.1296   1.1666   0.7764  -0.9450   0.00    0.0
2024/09/10 09:04:10.000   69.212375138   15.858587694    50.0432   5  13   2.1120   1.8116   5.1301   1.1664   0.7767  -0.9455   0.00    0.0
2024/09/10 09:04:11.000   69.212356352   15.858657422    59.8575   5  14   1.8348   1.8102   4.7700   1.1346   0.8576   1.0400   0.00    0.0
2024/09/10 09:04:12.000   69.212330926   15.858645838    62.1864   5  14   1.8348   1.8102   4.7703   1.1345   0.8577   1.0398   0.00    0.0
2024/09/10 09:04:13.000   69.212367193   15.858593261    51.6933   5  13   2.1120   1.8115   5.1317   1.1658   0.7778  -0.9471   0.00    0.0
2024/09/10 09:04:14.000   69.212355175   15.858565789    47.2753   5  13   2.1120   1.8115   5.1322   1.1657   0.7782  -0.9477   0.00    0.0
2024/09/10 09:04:15.000   69.212335951   15.858518164    61.2296   5  14   1.8347   1.8101   4.7713   1.1342   0.8581   1.0392   0.00    0.0
2024/09/10 09:04:16.000   69.212330990   15.858523745    61.3984   5  13   1.8368   1.9930   4.9398   1.1656  -0.5738   0.9842   0.00    0.0
2024/09/10 09:04:17.000   69.212337953   15.858533392    63.0261   5  14   1.8347   1.8101   4.7719   1.1340   0.8583   1.0388   0.00    0.0
2024/09/10 09:04:18.000   69.212321606   15.858536384    60.1173   5  13   1.8368   1.9930   4.9402   1.1655  -0.5730   0.9837   0.00    0.0
2024/09/10 09:04:19.000   69.212321660   15.858543843    61.3937   5  13   1.8368   1.9929   4.9405   1.1654  -0.5727   0.9835   0.00    0.0
2024/09/10 09:04:20.000   69.212329407   15.858539839    66.3828   5  13   1.8368   1.9929   4.9407   1.1653  -0.5723   0.9832   0.00    0.0
2024/09/10 09:04:21.000   69.212358387   15.858577391    55.2376   5  12   2.1180   1.9968   5.3257   1.2205  -0.7585  -1.0628   0.00    0.0
2024/09/10 09:04:22.000   69.212364090   15.858578777    50.3011   5  12   2.1180   1.9968   5.3261   1.2203  -0.7579  -1.0633   0.00    0.0
2024/09/10 09:04:23.000   69.212363144   15.858558697    58.8583   5  12   2.1180   1.9968   5.3265   1.2202  -0.7574  -1.0638   0.00    0.0
2024/09/10 09:04:24.000   69.212330164   15.858591916    62.3988   5  13   1.8368   1.9929   4.9416   1.1651  -0.5708   0.9823   0.00    0.0
2024/09/10 09:04:25.000   69.212312097   15.858539974    65.5791   5  13   1.8368   1.9929   4.9418   1.1650  -0.5704   0.9821   0.00    0.0
2024/09/10 09:04:26.000   69.212331765   15.858557112    69.9836   5  13   1.8368   1.9929   4.9420   1.1650  -0.5700   0.9818   0.00    0.0
2024/09/10 09:04:27.000   69.212356487   15.858575596    60.4320   5  12   2.1180   1.9967   5.3281   1.2195  -0.7551  -1.0657   0.00    0.0
2024/09/10 09:04:28.000   69.212349871   15.858569284    57.3419   5  12   2.1180   1.9967   5.3285   1.2193  -0.7546  -1.0662   0.00    0.0
2024/09/10 09:04:29.000   69.212363603   15.858576640    56.0619   5  12   2.1180   1.9967   5.3289   1.2192  -0.7540  -1.0667   0.00    0.0
2024/09/10 09:04:30.000   69.212366103   15.858560228    54.6600   5  12   2.1180   1.9966   5.3293   1.2190  -0.7535  -1.0671   0.00    0.0
2024/09/10 09:04:31.000   69.212361888   15.858570007    58.7270   5  12   2.1180   1.9966   5.3297   1.2188  -0.7529  -1.0676   0.00    0.0
2024/09/10 09:04:32.000   69.212375012   15.858594310    56.0539   5  12   2.1180   1.9966   5.3301   1.2187  -0.7523  -1.0681   0.00    0.0
2024/09/10 09:04:33.000   69.212342148   15.858556697    57.9308   5  12   2.1180   1.9966   5.3305   1.2185  -0.7518  -1.0686   0.00    0.0
2024/09/10 09:04:34.000   69.212369887   15.858571041    58.6781   5  12   2.1180   1.9966   5.3309   1.2183  -0.7512  -1.0690   0.00    0.0
2024/09/10 09:04:35.000   69.212369073   15.858636556    57.2019   5  12   2.1180   1.9965   5.3313   1.2182  -0.7507  -1.0695   0.00    0.0
2024/09/10 09:04:36.000   69.212372999   15.858651978    53.3110   5  12   2.1180   1.9965   5.3317   1.2180  -0.7501  -1.0700   0.00    0.0
2024/09/10 09:04:37.000   69.212390880   15.858664236    52.4847   5  12   2.1180   1.9965   5.3321   1.2179  -0.7495  -1.0705   0.00    0.0
2024/09/10 09:04:38.000   69.212330048   15.858580523    61.9617   5  13   1.8368   1.9928   4.9447   1.1642  -0.5654   0.9790   0.00    0.0
2024/09/10 09:04:39.000   69.212316520   15.858615747    64.7993   5  13   1.8368   1.9928   4.9449   1.1641  -0.5650   0.9787   0.00    0.0
2024/09/10 09:04:40.000   69.212364754   15.858606255    55.1047   5  12   2.1180   1.9964   5.3333   1.2174  -0.7478  -1.0719   0.00    0.0
2024/09/10 09:04:41.000   69.212372908   15.858617147    54.4236   5  12   2.1180   1.9964   5.3337   1.2172  -0.7473  -1.0724   0.00    0.0
2024/09/10 09:04:42.000   69.212372027   15.858633504    57.0953   5  12   2.1180   1.9964   5.3341   1.2170  -0.7467  -1.0728   0.00    0.0
2024/09/10 09:04:43.000   69.212381688   15.858622274    48.8927   5  12   2.1180   1.9964   5.3345   1.2169  -0.7461  -1.0733   0.00    0.0
2024/09/10 09:04:44.000   69.212359772   15.858552795    53.9039   5  12   2.1180   1.9963   5.3349   1.2167  -0.7455  -1.0738   0.00    0.0
2024/09/10 09:04:45.000   69.212372145   15.858598462    54.1208   5  12   2.1180   1.9963   5.3353   1.2165  -0.7450  -1.0742   0.00    0.0
2024/09/10 09:04:46.000   69.212365315   15.858574373    51.1199   5  12   2.1180   1.9963   5.3357   1.2164  -0.7444  -1.0747   0.00    0.0
2024/09/10 09:04:47.000   69.212364807   15.858626846    52.9534   5  12   2.1180   1.9963   5.3361   1.2162  -0.7438  -1.0752   0.00    0.0
2024/09/10 09:04:48.000   69.212326835   15.858617212    66.5259   5  13   1.8368   1.9927   4.9469   1.1635  -0.5615   0.9766   0.00    0.0
2024/09/10 09:04:49.000   69.212338432   15.858584781    52.8003   5  12   2.1180   1.9962   5.3369   1.2159  -0.7427  -1.0761   0.00    0.0
2024/09/10 09:04:50.000   69.212360746   15.858566006    54.0064   5  12   2.1180   1.9962   5.3373   1.2157  -0.7421  -1.0766   0.00    0.0
2024/09/10 09:04:51.000   69.212350152   15.858581467    58.8759   5  12   2.1180   1.9962   5.3377   1.2155  -0.7415  -1.0771   0.00    0.0
2024/09/10 09:04:52.000   69.212371641   15.858587573    50.7181   5  12   2.1180   1.9962   5.3381   1.2154  -0.7410  -1.0775   0.00    0.0
2024/09/10 09:04:53.000   69.212398361   15.858646486    52.9672   5  12   2.1180   1.9962   5.3385   1.2152  -0.7404  -1.0780   0.00    0.0
2024/09/10 09:04:54.000   69.212394091   15.858632546    55.2022   5  12   2.1180   1.9961   5.3389   1.2150  -0.7398  -1.0785   0.00    0.0
2024/09/10 09:04:55.000   69.212368326   15.858632629    51.2469   5  12   2.1180   1.9961   5.3393   1.2149  -0.7392  -1.0790   0.00    0.0
2024/09/10 09:04:56.000   69.212366580   15.858570021    51.7166   5  12   2.1180   1.9961   5.3397   1.2147  -0.7386  -1.0794   0.00    0.0
2024/09/10 09:04:57.000   69.212384330   15.858611697    50.4022   5  12   2.1180   1.9961   5.3401   1.2145  -0.7381  -1.0799   0.00    0.0
2024/09/10 09:04:58.000   69.212374762   15.858565658    48.8481   5  12   2.1180   1.9960   5.3405   1.2144  -0.7375  -1.0804   0.00    0.0
2024/09/10 09:04:59.000   69.212389776   15.858610368    49.9025   5  12   2.1180   1.9960   5.3408   1.2142  -0.7369  -1.0808   0.00    0.0
2024/09/10 09:05:00.000   69.212354464   15.858558508    51.0640   5  12   2.1180   1.9960   5.3412   1.2140  -0.7363  -1.0813   0.00    0.0
2024/09/10 09:05:01.000   69.212359161   15.858586305    54.6486   5  12   2.1180   1.9960   5.3416   1.2139  -0.7357  -1.0818   0.00    0.0
2024/09/10 09:05:02.000   69.212363457   15.858543318    51.6059   5  12   2.1180   1.9960   5.3420   1.2137  -0.7352  -1.0822   0.00    0.0
2024/09/10 09:05:03.000   69.212362429   15.858576544    53.5051   5  12   2.1180   1.9959   5.3424   1.2135  -0.7346  -1.0827   0.00    0.0
2024/09/10 09:05:04.000   69.212348719   15.858567200    58.8215   5  12   2.1180   1.9959   5.3428   1.2134  -0.7340  -1.0832   0.00    0.0
2024/09/10 09:05:05.000   69.212359195   15.858517916    54.4118   5  12   2.1180   1.9959   5.3432   1.2132  -0.7334  -1.0836   0.00    0.0
2024/09/10 09:05:06.000   69.212379306   15.858598360    55.7323   5  12   2.1180   1.9959   5.3436   1.2130  -0.7328  -1.0841   0.00    0.0
2024/09/10 09:05:07.000   69.212370147   15.858560408    46.4471   5  12   2.1180   1.9959   5.3440   1.2129  -0.7322  -1.0846   0.00    0.0
2024/09/10 09:05:08.000   69.212377130   15.858580624    48.4556   5  12   2.1180   1.9958   5.3444   1.2127  -0.7316  -1.0851   0.00    0.0
2024/09/10 09:05:09.000   69.212409353   15.858685589    54.8219   5  12   2.1180   1.9958   5.3448   1.2125  -0.7311  -1.0855   0.00    0.0
2024/09/10 09:05:10.000   69.212407062   15.858672145    50.7732   5  12   2.1180   1.9958   5.3452   1.2124  -0.7305  -1.0860   0.00    0.0
2024/09/10 09:05:11.000   69.212367502   15.858628158    57.3428   5  12   2.1180   1.9958   5.3455   1.2122  -0.7299  -1.0864   0.00    0.0
2024/09/10 09:05:12.000   69.212379079   15.858597384    52.1078   5  12   2.1180   1.9957   5.3459   1.2120  -0.7293  -1.0869   0.00    0.0
2024/09/10 09:05:13.000   69.212367907   15.858665162    56.7318   5  12   2.1180   1.9957   5.3463   1.2119  -0.7287  -1.0874   0.00    0.0
2024/09/10 09:05:14.000   69.212376241   15.858685695    60.4328   5  12   2.1180   1.9957   5.3467   1.2117  -0.7281  -1.0878   0.00    0.0
2024/09/10 09:05:15.000   69.212374394   15.858684031    54.8201   5  12   2.1180   1.9957   5.3471   1.2115  -0.7275  -1.0883   0.00    0.0
2024/09/10 09:05:16.000   69.212409750   15.858665288    50.8123   5  12   2.1180   1.9957   5.3475   1.2114  -0.7269  -1.0888   0.00    0.0
2024/09/10 09:05:17.000   69.212359118   15.858685752    55.4287   5  13   1.8368   1.9925   4.9531   1.1616  -0.5501   0.9697   0.00    0.0
2024/09/10 09:05:18.000   69.212394840   15.858675825    50.1634   5  12   2.1180   1.9956   5.3483   1.2110  -0.7257  -1.0897   0.00    0.0
2024/09/10 09:05:19.000   69.212376613   15.858641349    53.4456   5  12   2.1180   1.9956   5.3487   1.2109  -0.7251  -1.0902   0.00    0.0
2024/09/10 09:05:20.000   69.212391086   15.858648755    55.8966   5  12   2.1180   1.9956   5.3490   1.2107  -0.7245  -1.0906   0.00    0.0
2024/09/10 09:05:21.000   69.212390743   15.858666602    56.6005   5  12   2.1180   1.9956   5.3494   1.2105  -0.7240  -1.0911   0.00    0.0
2024/09/10 09:05:22.000   69.212374904   15.858664238    52.4417   5  12   2.1180   1.9955   5.3498   1.2104  -0.7234  -1.0916   0.00    0.0
2024/09/10 09:05:23.000   69.212351597   15.858589407    57.8753   5  12   2.1180   1.9955   5.3502   1.2102  -0.7227  -1.0920   0.00    0.0
2024/09/10 09:05:24.000   69.212377107   15.858632272    55.1179   5  12   2.1180   1.9955   5.3506   1.2100  -0.7222  -1.0925   0.00    0.0
2024/09/10 09:05:25.000   69.212378173   15.858596086    58.4583   5  12   2.1180   1.9955   5.3510   1.2099  -0.7216  -1.0930   0.00    0.0
2024/09/10 09:05:26.000   69.212347766   15.858613868    69.9391   5  12   2.1180   1.9955   5.3514   1.2097  -0.7210  -1.0934   0.00    0.0
2024/09/10 09:05:27.000   69.212354555   15.858561946    62.3681   5  12   2.1180   1.9954   5.3517   1.2095  -0.7203  -1.0939   0.00    0.0
2024/09/10 09:05:28.000   69.212361224   15.858574418    63.3993   5  12   2.1181   1.9954   5.3521   1.2094  -0.7197  -1.0943   0.00    0.0
2024/09/10 09:05:29.000   69.212345798   15.858554754    57.7402   5  12   2.1181   1.9954   5.3525   1.2092  -0.7191  -1.0948   0.00    0.0
2024/09/10 09:05:30.000   69.212349034   15.858573558    61.9633   5  12   2.1181   1.9954   5.3529   1.2090  -0.7185  -1.0953   0.00    0.0
2024/09/10 09:05:31.000   69.212354600   15.858552143    59.9478   5  12   2.1181   1.9954   5.3533   1.2088  -0.7179  -1.0957   0.00    0.0
2024/09/10 09:05:32.000   69.212358328   15.858584700    61.3119   5  12   2.1181   1.9953   5.3537   1.2087  -0.7173  -1.0962   0.00    0.0
2024/09/10 09:05:33.000   69.212356516   15.858586785    65.2322   5  12   2.1181   1.9953   5.3540   1.2085  -0.7167  -1.0966   0.00    0.0
2024/09/10 09:05:34.000   69.212339040   15.858619372    64.6790   5  12   2.1181   1.9953   5.3544   1.2083  -0.7161  -1.0971   0.00    0.0
2024/09/10 09:05:35.000   69.212358219   15.858627781    62.1163   5  12   2.1181   1.9953   5.3548   1.2082  -0.7155  -1.0976   0.00    0.0
2024/09/10 09:05:36.000   69.212358791   15.858612774    59.8979   5  12   2.1181   1.9953   5.3552   1.2080  -0.7149  -1.0980   0.00    0.0
2024/09/10 09:05:37.000   69.212382011   15.858609541    65.4499   5  12   2.1181   1.9952   5.3556   1.2078  -0.7143  -1.0985   0.00    0.0
2024/09/10 09:05:38.000   69.212384849   15.858665149    67.8523   5  12   2.1181   1.9952   5.3560   1.2077  -0.7137  -1.0990   0.00    0.0
2024/09/10 09:05:39.000   69.212368663   15.858679809    66.4070   5  12   2.1181   1.9952   5.3563   1.2075  -0.7131  -1.0994   0.00    0.0
2024/09/10 09:05:40.000   69.212375823   15.858647657    62.6520   5  12   2.1181   1.9952   5.3567   1.2073  -0.7125  -1.0999   0.00    0.0
2024/09/10 09:05:41.000   69.212372420   15.858661598    67.0974   5  12   2.1181   1.9952   5.3571   1.2072  -0.7119  -1.1003   0.00    0.0
2024/09/10 09:05:42.000   69.212377113   15.858716562    69.9604   5  12   2.1181   1.9951   5.3575   1.2070  -0.7113  -1.1008   0.00    0.0
2024/09/10 09:05:43.000   69.212381374   15.858715546    60.3219   5  12   2.1181   1.9951   5.3579   1.2068  -0.7106  -1.1013   0.00    0.0
2024/09/10 09:05:44.000   69.212386070   15.858699837    57.1610   5  12   2.1181   1.9951   5.3582   1.2067  -0.7100  -1.1017   0.00    0.0
2024/09/10 09:05:45.000   69.212381319   15.858712806    62.6392   5  12   2.1181   1.9951   5.3586   1.2065  -0.7094  -1.1022   0.00    0.0
2024/09/10 09:05:46.000   69.212384093   15.858738026    65.5478   5  12   2.1181   1.9951   5.3590   1.2063  -0.7088  -1.1026   0.00    0.0
2024/09/10 09:05:47.000   69.212367965   15.858679472    66.2987   5  12   2.1181   1.9950   5.3594   1.2061  -0.7082  -1.1031   0.00    0.0
2024/09/10 09:05:48.000   69.212380207   15.858677859    61.2445   5  12   2.1181   1.9950   5.3598   1.2060  -0.7076  -1.1035   0.00    0.0
2024/09/10 09:05:49.000   69.212399168   15.858743732    61.3693   5  12   2.1181   1.9950   5.3601   1.2058  -0.7069  -1.1040   0.00    0.0
2024/09/10 09:05:50.000   69.212397088   15.858764708    63.7606   5  12   2.1181   1.9950   5.3605   1.2056  -0.7063  -1.1045   0.00    0.0
2024/09/10 09:05:51.000   69.212382420   15.858687119    60.9738   5  12   2.1181   1.9950   5.3609   1.2055  -0.7057  -1.1049   0.00    0.0
2024/09/10 09:05:52.000   69.212365854   15.858679266    66.3398   5  12   2.1181   1.9949   5.3613   1.2053  -0.7051  -1.1054   0.00    0.0
2024/09/10 09:05:53.000   69.212353438   15.858673906    63.1132   5  12   2.1181   1.9949   5.3616   1.2051  -0.7045  -1.1058   0.00    0.0
2024/09/10 09:05:54.000   69.212382936   15.858645730    63.9010   5  12   2.1181   1.9949   5.3620   1.2050  -0.7038  -1.1063   0.00    0.0
2024/09/10 09:05:55.000   69.212387659   15.858723248    57.5325   5  12   2.1181   1.9949   5.3624   1.2048  -0.7032  -1.1067   0.00    0.0
2024/09/10 09:05:56.000   69.212396028   15.858692256    61.4749   5  12   2.1181   1.9949   5.3628   1.2046  -0.7026  -1.1072   0.00    0.0
2024/09/10 09:05:57.000   69.212421552   15.858760656    63.2724   5  11   2.3970   2.3120   5.3739   1.6620  -0.3108  -0.9201   0.00    0.0
2024/09/10 09:05:58.000   69.212377077   15.858632215    66.9705   5  12   2.1181   1.9948   5.3635   1.2043  -0.7013  -1.1081   0.00    0.0
2024/09/10 09:05:59.000   69.212378616   15.858660708    58.9527   5  12   2.1181   1.9948   5.3639   1.2041  -0.7007  -1.1086   0.00    0.0
2024/09/10 09:06:00.000   69.212387490   15.858706741    63.2534   5  12   2.1181   1.9948   5.3643   1.2039  -0.7001  -1.1090   0.00    0.0
2024/09/10 09:06:01.000   69.212398695   15.858638821    60.4947   5  12   2.1182   1.9948   5.3647   1.2038  -0.6994  -1.1095   0.00    0.0
2024/09/10 09:06:02.000   69.212377348   15.858640061    61.6342   5  12   2.1182   1.9947   5.3650   1.2036  -0.6988  -1.1099   0.00    0.0
2024/09/10 09:06:03.000   69.212353324   15.858594533    67.9167   5  12   2.1182   1.9947   5.3654   1.2034  -0.6982  -1.1104   0.00    0.0
2024/09/10 09:06:04.000   69.212359705   15.858593838    63.4056   5  12   2.1182   1.9947   5.3658   1.2032  -0.6976  -1.1108   0.00    0.0
2024/09/10 09:06:05.000   69.212365550   15.858600308    63.1617   5  12   2.1182   1.9947   5.3661   1.2031  -0.6969  -1.1113   0.00    0.0
2024/09/10 09:06:06.000   69.212387956   15.858653932    58.6133   5  12   2.1182   1.9947   5.3665   1.2029  -0.6963  -1.1117   0.00    0.0
2024/09/10 09:06:07.000   69.212396482   15.858644905    57.7849   5  12   2.1182   1.9946   5.3669   1.2027  -0.6957  -1.1122   0.00    0.0
2024/09/10 09:06:08.000   69.212387097   15.858638060    64.6817   5  12   2.1182   1.9946   5.3673   1.2026  -0.6950  -1.1127   0.00    0.0
2024/09/10 09:06:09.000   69.212372571   15.858656507    60.1858   5  12   2.1182   1.9946   5.3676   1.2024  -0.6944  -1.1131   0.00    0.0
2024/09/10 09:06:10.000   69.212392866   15.858652197    62.1877   5  12   2.1182   1.9946   5.3680   1.2022  -0.6938  -1.1136   0.00    0.0
2024/09/10 09:06:11.000   69.212398059   15.858680453    64.4489   5  12   2.1182   1.9946   5.3684   1.2020  -0.6931  -1.1140   0.00    0.0
2024/09/10 09:06:12.000   69.212394460   15.858698714    66.4603   5  12   2.1182   1.9945   5.3687   1.2019  -0.6925  -1.1145   0.00    0.0
2024/09/10 09:06:13.000   69.212439526   15.858805218    68.7542   5  11   2.3975   2.3117   5.3795   1.6603  -0.2976  -0.9317   0.00    0.0
2024/09/10 09:06:14.000   69.212393121   15.858639442    65.5466   5  12   2.1182   1.9945   5.3695   1.2015  -0.6912  -1.1154   0.00    0.0
2024/09/10 09:06:15.000   69.212378919   15.858659424    64.1538   5  12   2.1182   1.9945   5.3699   1.2014  -0.6906  -1.1158   0.00    0.0
2024/09/10 09:06:16.000   69.212438966   15.858796268    63.3465   5  11   2.3976   2.3116   5.3805   1.6599  -0.2950  -0.9339   0.00    0.0
2024/09/10 09:06:17.000   69.212454005   15.858768971    62.5319   5  11   2.3976   2.3116   5.3809   1.6598  -0.2942  -0.9346   0.00    0.0
2024/09/10 09:06:18.000   69.212412963   15.858698416    59.9054   5  12   2.1182   1.9944   5.3710   1.2008  -0.6887  -1.1172   0.00    0.0
2024/09/10 09:06:19.000   69.212373344   15.858666729    65.4720   5  12   2.1182   1.9944   5.3713   1.2007  -0.6880  -1.1176   0.00    0.0
2024/09/10 09:06:20.000   69.212383532   15.858652311    66.5849   5  12   2.1182   1.9944   5.3717   1.2005  -0.6874  -1.1181   0.00    0.0
2024/09/10 09:06:21.000   69.212384061   15.858691241    69.1591   5  12   2.1182   1.9944   5.3721   1.2003  -0.6867  -1.1185   0.00    0.0
2024/09/10 09:06:22.000   69.212402066   15.858658415    53.4490   5  12   2.1182   1.9943   5.3724   1.2002  -0.6861  -1.1190   0.00    0.0
2024/09/10 09:06:23.000   69.212395228   15.858701008    54.1701   5  12   2.1182   1.9943   5.3728   1.2000  -0.6854  -1.1194   0.00    0.0
2024/09/10 09:06:24.000   69.212398300   15.858648497    59.0328   5  12   2.1182   1.9943   5.3732   1.1998  -0.6848  -1.1199   0.00    0.0
2024/09/10 09:06:25.000   69.212400985   15.858611372    53.3980   5  12   2.1183   1.9943   5.3735   1.1996  -0.6841  -1.1203   0.00    0.0
2024/09/10 09:06:26.000   69.212379576   15.858602133    59.0898   5  12   2.1183   1.9943   5.3739   1.1995  -0.6835  -1.1208   0.00    0.0
2024/09/10 09:06:27.000   69.212383573   15.858651542    58.4895   5  12   2.1183   1.9943   5.3743   1.1993  -0.6828  -1.1212   0.00    0.0
2024/09/10 09:06:28.000   69.212396851   15.858644217    56.5506   5  12   2.1183   1.9942   5.3746   1.1991  -0.6822  -1.1217   0.00    0.0
2024/09/10 09:06:29.000   69.212356404   15.858733492    65.0928   5  11   2.3567   2.1013   6.0418   0.8680   1.1673  -2.0271   0.00    0.0
2024/09/10 09:06:30.000   69.212401094   15.858601667    35.9771   5  11   2.2104   1.9950   8.7125   1.2139  -0.9268  -2.3643   0.00    0.0
2024/09/10 09:06:31.000   69.212373899   15.858612869    63.5612   5  12   2.1183   1.9942   5.3757   1.1986  -0.6802  -1.1230   0.00    0.0
2024/09/10 09:06:32.000   69.212370210   15.858520336    61.1817   5  12   2.1183   1.9942   5.3761   1.1984  -0.6796  -1.1235   0.00    0.0
2024/09/10 09:06:33.000   69.212335581   15.858651757    68.9703   5  11   2.3568   2.1014   6.0425   0.8665   1.1693  -2.0279   0.00    0.0
2024/09/10 09:06:34.000   69.212379413   15.858570572    41.9400   5  11   2.2106   1.9949   8.7178   1.2126  -0.9163  -2.3667   0.00    0.0
2024/09/10 09:06:35.000   69.212372027   15.858569045    61.0000   5  12   2.1183   1.9941   5.3772   1.1979  -0.6776  -1.1248   0.00    0.0
2024/09/10 09:06:36.000   69.212372347   15.858588710    65.5395   5  12   2.1183   1.9941   5.3776   1.1977  -0.6769  -1.1252   0.00    0.0
2024/09/10 09:06:37.000   69.212403591   15.858572124    38.2064   5  11   2.2107   1.9948   8.7217   1.2116  -0.9083  -2.3684   0.00    0.0
2024/09/10 09:06:38.000   69.212393643   15.858654413    65.9091   5  11   2.3982   2.3111   5.3881   1.6576  -0.2756  -0.9497   0.00    0.0
2024/09/10 09:06:39.000   69.212378956   15.858604204    61.0667   5  12   2.1183   1.9940   5.3786   1.1972  -0.6750  -1.1266   0.00    0.0
2024/09/10 09:06:40.000   69.212406750   15.858611888    36.4882   5  11   2.2108   1.9947   8.7256   1.2107  -0.9003  -2.3702   0.00    0.0
2024/09/10 09:06:41.000   69.212376641   15.858617254    43.2343   5  11   2.2109   1.9946   8.7269   1.2103  -0.8976  -2.3708   0.00    0.0
2024/09/10 09:06:42.000   69.212379085   15.858659372    67.3769   5  12   2.1183   1.9940   5.3797   1.1967  -0.6730  -1.1279   0.00    0.0
2024/09/10 09:06:43.000   69.212344862   15.858654971    79.3795   5  11   2.3572   2.1018   6.0442   0.8628   1.1743  -2.0300   0.00    0.0
2024/09/10 09:06:44.000   69.212382284   15.858563484    42.0251   5  11   2.2110   1.9945   8.7308   1.2094  -0.8895  -2.3726   0.00    0.0
2024/09/10 09:06:45.000   69.212357434   15.858685708    74.8161   5  11   2.3573   2.1019   6.0445   0.8620   1.1753  -2.0305   0.00    0.0
2024/09/10 09:06:46.000   69.212426533   15.858763928    70.1235   5  11   2.3985   2.3110   5.3909   1.6567  -0.2682  -0.9555   0.00    0.0
2024/09/10 09:06:47.000   69.212402059   15.858587991    48.2543   5  11   2.2111   1.9944   8.7347   1.2084  -0.8812  -2.3744   0.00    0.0
2024/09/10 09:06:48.000   69.212406932   15.858565947    44.1605   5  11   2.2112   1.9944   8.7360   1.2081  -0.8784  -2.3750   0.00    0.0
2024/09/10 09:06:50.000   69.212395426   15.858502674    39.5145   5  11   2.2113   1.9943   8.7386   1.2074  -0.8729  -2.3762   0.00    0.0
2024/09/10 09:06:51.000   69.212394979   15.858577318    46.8433   5  11   2.2113   1.9943   8.7398   1.2071  -0.8701  -2.3768   0.00    0.0
2024/09/10 09:06:52.000   69.212398731   15.858596319    42.4610   5  11   2.2114   1.9943   8.7411   1.2068  -0.8673  -2.3774   0.00    0.0
2024/09/10 09:06:54.000   69.212397735   15.858645077    43.7680   5  11   2.2115   1.9942   8.7437   1.2061  -0.8616  -2.3785   0.00    0.0
2024/09/10 09:06:55.000   69.212342168   15.858659339    81.1762   5  11   2.3576   2.1023   6.0462   0.8582   1.1803  -2.0325   0.00    0.0
2024/09/10 09:06:56.000   69.212404015   15.858585654    42.6178   5  11   2.2116   1.9942   8.7463   1.2055  -0.8559  -2.3797   0.00    0.0
2024/09/10 09:06:57.000   69.212397721   15.858588501    39.5400   5  11   2.2116   1.9941   8.7475   1.2051  -0.8530  -2.3803   0.00    0.0
2024/09/10 09:06:58.000   69.212390876   15.858583516    37.1327   5  11   2.2116   1.9941   8.7488   1.2048  -0.8502  -2.3809   0.00    0.0
2024/09/10 09:06:59.000   69.212388638   15.858587462    75.6428   5  12   2.1394   1.8144   5.7260   1.1078   0.5349  -0.5134   0.00    0.0
2024/09/10 09:07:08.000   69.212345058   15.858552891    83.0145   5  13   2.0448   1.7816   5.2127   1.0044  -0.7235  -1.3313   0.00    0.0
2024/09/10 09:07:19.000   69.212354895   15.858538444    67.2481   5  13   2.0451   1.7812   5.2223   1.0023  -0.7190  -1.3338   0.00    0.0
2024/09/10 09:07:28.000   69.212365032   15.858527371    66.4725   5  13   2.0453   1.7809   5.2302   1.0006  -0.7154  -1.3359   0.00    0.0
2024/09/10 09:07:30.000   69.212375760   15.858505831    67.0199   5  13   2.0454   1.7808   5.2319   1.0002  -0.7146  -1.3363   0.00    0.0
2024/09/10 09:07:31.000   69.212364332   15.858641845    48.9453   5  13   2.0454   1.7808   5.2328   1.0000  -0.7142  -1.3365   0.00    0.0
2024/09/10 09:07:32.000   69.212358001   15.858523075    50.7068   5  13   2.0455   1.7807   5.2337   0.9998  -0.7137  -1.3368   0.00    0.0
2024/09/10 09:07:33.000   69.212366732   15.858621189    61.1583   5  13   2.0455   1.7807   5.2345   0.9996  -0.7133  -1.3370   0.00    0.0
2024/09/10 09:08:03.000   69.212369573   15.858798136    68.6864   5  13   2.3087   1.7100   5.7540   0.5515   0.8277  -2.0827   0.00    0.0
2024/09/10 09:08:11.000   69.212337605   15.858684330    64.3253   5  13   2.3090   1.7099   5.7595   0.5478   0.8282  -2.0837   0.00    0.0
2024/09/10 09:08:17.000   69.212347284   15.858712261    63.3120   5  13   2.3093   1.7099   5.7635   0.5449   0.8286  -2.0844   0.00    0.0
2024/09/10 09:08:19.000   69.212341482   15.858708740    63.7333   5  13   2.3094   1.7098   5.7649   0.5440   0.8287  -2.0847   0.00    0.0
2024/09/10 09:08:21.000   69.212334919   15.858648059    63.0188   5  13   2.3094   1.7098   5.7662   0.5430   0.8288  -2.0849   0.00    0.0
2024/09/10 09:08:23.000   69.212386691   15.858567557    55.3151   5  13   2.0469   1.7789   5.2780   0.9899  -0.6921  -1.3482   0.00    0.0
2024/09/10 09:08:25.000   69.212372640   15.858489794    53.9190   5  13   2.0469   1.7788   5.2797   0.9895  -0.6912  -1.3486   0.00    0.0
2024/09/10 09:08:26.000   69.212385196   15.858592369    45.1756   5  13   2.0470   1.7788   5.2806   0.9893  -0.6908  -1.3489   0.00    0.0
2024/09/10 09:08:27.000   69.212378532   15.858592429    53.8079   5  14   2.0304   1.6455   5.2800   0.8960  -0.6268  -1.3371   0.00    0.0
2024/09/10 09:08:29.000   69.212340600   15.858587120    54.9361   5  14   2.0305   1.6454   5.2818   0.8956  -0.6268  -1.3377   0.00    0.0
2024/09/10 09:08:30.000   69.212364157   15.858615456    44.0739   5  13   2.0471   1.7786   5.2841   0.9885  -0.6890  -1.3498   0.00    0.0
2024/09/10 09:08:31.000   69.212361657   15.858519621    56.4037   5  13   2.0471   1.7786   5.2849   0.9883  -0.6885  -1.3500   0.00    0.0
2024/09/10 09:08:32.000   69.212434915   15.858889679    45.3994   5  13   2.2814   2.0581   5.3115   1.4445  -1.0271  -1.5326   0.00    0.0
2024/09/10 09:08:34.000   69.212342906   15.858666652    40.9467   5  13   2.0472   1.7785   5.2875   0.9878  -0.6872  -1.3506   0.00    0.0
2024/09/10 09:08:35.000   69.212335838   15.858581065    55.6116   5  13   2.0472   1.7784   5.2884   0.9876  -0.6868  -1.3509   0.00    0.0
2024/09/10 09:08:36.000   69.212301970   15.858663555    56.3301   5  13   1.7737   1.8621   4.8487   0.8341  -0.6214   0.7167   0.00    0.0
2024/09/10 09:08:37.000   69.212322051   15.858660766    60.8318   5  14   1.7442   1.7760   4.8453   0.9360  -0.5248   0.6710   0.00    0.0
2024/09/10 09:08:38.000   69.212354507   15.858645568    57.9584   5  14   1.7442   1.7760   4.8459   0.9359  -0.5245   0.6712   0.00    0.0
2024/09/10 09:08:39.000   69.212317104   15.858694203    65.3362   5  14   1.7442   1.7759   4.8465   0.9358  -0.5243   0.6714   0.00    0.0
2024/09/10 09:08:40.000   69.212311222   15.858648126    63.1077   5  14   1.7443   1.7759   4.8471   0.9357  -0.5240   0.6716   0.00    0.0
2024/09/10 09:08:41.000   69.212289574   15.858554000    60.2948   5  14   1.7443   1.7759   4.8477   0.9356  -0.5238   0.6717   0.00    0.0
2024/09/10 09:08:42.000   69.212344850   15.858671031    46.0361   5  13   2.0474   1.7782   5.2945   0.9862  -0.6837  -1.3524   0.00    0.0
2024/09/10 09:08:43.000   69.212297473   15.858508353    63.1577   5  14   1.7444   1.7758   4.8490   0.9354  -0.5233   0.6721   0.00    0.0
2024/09/10 09:08:44.000   69.212308035   15.858543328    57.7704   5  14   1.7444   1.7758   4.8496   0.9353  -0.5230   0.6723   0.00    0.0
2024/09/10 09:08:46.000   69.212354727   15.858429593    45.2567   5  14   1.7445   1.7758   4.8508   0.9351  -0.5225   0.6726   0.00    0.0
2024/09/10 09:08:47.000   69.212306054   15.858387902    47.2760   5  14   1.7445   1.7757   4.8514   0.9350  -0.5222   0.6728   0.00    0.0
2024/09/10 09:08:48.000   69.212305183   15.858411774    43.8132   5  14   1.7445   1.7757   4.8520   0.9349  -0.5220   0.6730   0.00    0.0
2024/09/10 09:08:49.000   69.212274414   15.858386576    46.8391   5  14   1.7445   1.7757   4.8526   0.9348  -0.5217   0.6731   0.00    0.0
2024/09/10 09:08:50.000   69.212255672   15.858291165    49.8504   5  14   1.7446   1.7756   4.8532   0.9347  -0.5215   0.6733   0.00    0.0
2024/09/10 09:08:51.000   69.212253388   15.858271897    46.1393   5  14   1.7446   1.7756   4.8538   0.9346  -0.5212   0.6735   0.00    0.0
2024/09/10 09:08:52.000   69.212242328   15.858275275    47.1721   5  14   1.7446   1.7756   4.8544   0.9345  -0.5210   0.6737   0.00    0.0
2024/09/10 09:08:53.000   69.212244620   15.858303341    48.9604   5  14   1.7447   1.7756   4.8550   0.9344  -0.5207   0.6739   0.00    0.0
2024/09/10 09:08:54.000   69.212264591   15.858302142    47.1530   5  14   1.7447   1.7755   4.8556   0.9343  -0.5205   0.6740   0.00    0.0
2024/09/10 09:08:55.000   69.212253479   15.858311013    49.2503   5  14   1.7447   1.7755   4.8562   0.9343  -0.5202   0.6742   0.00    0.0
2024/09/10 09:08:56.000   69.212227868   15.858306084    49.1222   5  14   1.7448   1.7755   4.8568   0.9342  -0.5200   0.6744   0.00    0.0
2024/09/10 09:08:57.000   69.212224421   15.858215699    49.3016   5  14   1.7448   1.7755   4.8574   0.9341  -0.5197   0.6746   0.00    0.0
2024/09/10 09:08:58.000   69.212202617   15.858370474    47.9000   5  13   1.7643   1.9444   4.8980   0.8156  -0.8746   0.7864   0.00    0.0
2024/09/10 09:08:59.000   69.212227413   15.858226439    50.3532   5  14   1.7449   1.7754   4.8586   0.9339  -0.5192   0.6749   0.00    0.0
2024/09/10 09:09:00.000   69.212241195   15.858281330    49.9619   5  14   1.7449   1.7754   4.8592   0.9338  -0.5190   0.6751   0.00    0.0
2024/09/10 09:09:01.000   69.212232107   15.858324441    53.3023   5  14   1.7449   1.7754   4.8598   0.9337  -0.5187   0.6753   0.00    0.0
2024/09/10 09:09:02.000   69.212240706   15.858268353    54.1241   5  14   1.7450   1.7753   4.8604   0.9336  -0.5185   0.6754   0.00    0.0
2024/09/10 09:09:03.000   69.212222670   15.858289974    49.5462   5  14   1.7450   1.7753   4.8610   0.9335  -0.5182   0.6756   0.00    0.0
2024/09/10 09:09:04.000   69.212223354   15.858271182    50.2313   5  14   1.7450   1.7753   4.8616   0.9334  -0.5179   0.6758   0.00    0.0
2024/09/10 09:09:05.000   69.212244155   15.858335095    56.1600   5  14   1.7451   1.7753   4.8622   0.9333  -0.5177   0.6760   0.00    0.0
2024/09/10 09:09:06.000   69.212246722   15.858310875    47.5558   5  14   1.7451   1.7752   4.8629   0.9332  -0.5174   0.6762   0.00    0.0
2024/09/10 09:09:07.000   69.212228412   15.858314810    49.4472   5  14   1.7451   1.7752   4.8635   0.9331  -0.5172   0.6763   0.00    0.0
2024/09/10 09:09:08.000   69.212227128   15.858291968    50.2338   5  14   1.7452   1.7752   4.8641   0.9330  -0.5169   0.6765   0.00    0.0
2024/09/10 09:09:09.000   69.212239654   15.858275408    50.2987   5  14   1.7452   1.7752   4.8647   0.9329  -0.5167   0.6767   0.00    0.0
2024/09/10 09:09:10.000   69.212245034   15.858298489    53.2099   5  14   1.7452   1.7751   4.8653   0.9328  -0.5164   0.6769   0.00    0.0
2024/09/10 09:09:11.000   69.212245119   15.858326247    52.9523   5  14   1.7453   1.7751   4.8659   0.9327  -0.5162   0.6770   0.00    0.0
2024/09/10 09:09:12.000   69.212241236   15.858284891    51.9119   5  14   1.7453   1.7751   4.8665   0.9326  -0.5159   0.6772   0.00    0.0
2024/09/10 09:09:13.000   69.212244179   15.858282298    50.1402   5  14   1.7453   1.7751   4.8671   0.9325  -0.5157   0.6774   0.00    0.0
2024/09/10 09:09:14.000   69.212238310   15.858281119    51.9359   5  14   1.7454   1.7750   4.8677   0.9324  -0.5154   0.6776   0.00    0.0
2024/09/10 09:09:15.000   69.212236174   15.858331162    53.9312   5  14   1.7454   1.7750   4.8683   0.9324  -0.5152   0.6778   0.00    0.0
2024/09/10 09:09:16.000   69.212242382   15.858284147    49.4547   5  14   1.7454   1.7750   4.8689   0.9323  -0.5149   0.6779   0.00    0.0
2024/09/10 09:09:17.000   69.212234253   15.858289829    50.9425   5  14   1.7454   1.7750   4.8695   0.9322  -0.5146   0.6781   0.00    0.0
2024/09/10 09:09:18.000   69.212237276   15.858338732    50.3730   5  14   1.7455   1.7749   4.8701   0.9321  -0.5144   0.6783   0.00    0.0
2024/09/10 09:09:19.000   69.212241058   15.858321078    48.6066   5  14   1.7455   1.7749   4.8707   0.9320  -0.5141   0.6785   0.00    0.0
2024/09/10 09:09:20.000   69.212232208   15.858258838    51.3606   5  14   1.7455   1.7749   4.8712   0.9319  -0.5139   0.6787   0.00    0.0
2024/09/10 09:09:21.000   69.212241879   15.858292462    53.0751   5  14   1.7456   1.7749   4.8718   0.9318  -0.5136   0.6788   0.00    0.0
2024/09/10 09:09:22.000   69.212228349   15.858267839    48.9963   5  14   1.7456   1.7748   4.8724   0.9317  -0.5133   0.6790   0.00    0.0
2024/09/10 09:09:23.000   69.212230452   15.858260877    52.7925   5  14   1.7456   1.7748   4.8730   0.9316  -0.5131   0.6792   0.00    0.0
2024/09/10 09:09:24.000   69.212232831   15.858300906    51.4295   5  14   1.7457   1.7748   4.8736   0.9315  -0.5128   0.6794   0.00    0.0
2024/09/10 09:09:25.000   69.212246491   15.858252137    53.7444   5  14   1.7457   1.7748   4.8742   0.9314  -0.5126   0.6796   0.00    0.0
2024/09/10 09:09:26.000   69.212239425   15.858285339    48.3638   5  14   1.7457   1.7747   4.8748   0.9313  -0.5123   0.6797   0.00    0.0
2024/09/10 09:09:27.000   69.212234638   15.858276743    46.3361   5  14   1.7458   1.7747   4.8754   0.9312  -0.5121   0.6799   0.00    0.0
2024/09/10 09:09:28.000   69.212219513   15.858282647    48.4138   5  14   1.7458   1.7747   4.8760   0.9311  -0.5118   0.6801   0.00    0.0
2024/09/10 09:09:29.000   69.212216501   15.858300441    51.9547   5  14   1.7458   1.7747   4.8766   0.9310  -0.5116   0.6803   0.00    0.0
2024/09/10 09:09:30.000   69.212193686   15.858355673    46.7283   5  14   1.7459   1.7746   4.8772   0.9309  -0.5113   0.6805   0.00    0.0
