# Raw,utcTimeMillis,TimeNanos,LeapSecond,TimeUncertaintyNanos,FullBiasNanos,BiasNanos,BiasUncertaintyNanos,DriftNanosPerSecond,DriftUncertaintyNanosPerSecond,HardwareClockDiscontinuityCount,Svid,TimeOffsetNanos,State,ReceivedSvTimeNanos,ReceivedSvTimeUncertaintyNanos,Cn0DbHz,PseudorangeRateMetersPerSecond,PseudorangeRateUncertaintyMetersPerSecond,AccumulatedDeltaRangeState,AccumulatedDeltaRangeMeters,AccumulatedDeltaRangeUncertaintyMeters,CarrierFrequencyHz,CarrierCycles,CarrierPhase,CarrierPhaseUncertainty,MultipathIndicator,SnrInDb,ConstellationType,AgcDb,BasebandCn0DbHz,FullInterSignalBiasNanos,FullInterSignalBiasUncertaintyNanos,SatelliteInterSignalBiasNanos,SatelliteInterSignalBiasUncertaintyNanos,CodeType,ChipsetElapsedRealtimeNanos
# Agc,utcTimeMillis,TimeNanos,LeapSecond,TimeUncertaintyNanos,FullBiasNanos,BiasNanos,BiasUncertaintyNanos,DriftNanosPerSecond,DriftUncertaintyNanosPerSecond,HardwareClockDiscontinuityCount,AgcDb,CarrierFrequencyHz,ConstellationType
Agc,1725970909620,4105000000,,,-1410006123515000467,0.0,200000422.815,,,9,39.776634216308594,1575420000,1
Agc,1725970909620,4105000000,,,-1410006123515000467,0.0,200000422.815,,,9,27.057228088378906,1176450000,1
Agc,1725970909620,4105000000,,,-1410006123515000467,0.0,200000422.815,,,9,56.43193817138672,1602000000,3
Agc,1725970909620,4105000000,,,-1410006123515000467,0.0,200000422.815,,,9,39.776634216308594,1575420000,6
Agc,1725970909620,4105000000,,,-1410006123515000467,0.0,200000422.815,,,9,27.057228088378906,1176450000,6
Agc,1725970909620,4105000000,,,-1410006123515000467,0.0,200000422.815,,,9,63.367698669433594,1561096000,5
Agc,1725970909620,4105000000,,,-1410006123515000467,0.0,200000422.815,,,9,39.776634216308594,1575420000,5
Agc,1725970909620,4105000000,,,-1410006123515000467,0.0,200000422.815,,,9,27.057228088378906,1176450000,5
Agc,1725970910599,5105000000,,,-1410006123494723214,0.0,1011000.0,,,9,39.776634216308594,1575420000,1
Agc,1725970910599,5105000000,,,-1410006123494723214,0.0,1011000.0,,,9,28.13314437866211,1176450000,1
Agc,1725970910599,5105000000,,,-1410006123494723214,0.0,1011000.0,,,9,59.924476623535156,1602000000,3
Agc,1725970910599,5105000000,,,-1410006123494723214,0.0,1011000.0,,,9,39.776634216308594,1575420000,6
Agc,1725970910599,5105000000,,,-1410006123494723214,0.0,1011000.0,,,9,28.13314437866211,1176450000,6
Agc,1725970910599,5105000000,,,-1410006123494723214,0.0,1011000.0,,,9,62.452545166015625,1561096000,5
Agc,1725970910599,5105000000,,,-1410006123494723214,0.0,1011000.0,,,9,39.776634216308594,1575420000,5
Agc,1725970910599,5105000000,,,-1410006123494723214,0.0,1011000.0,,,9,28.13314437866211,1176450000,5
Agc,1725970911599,6105000000,,,-1410006123494723327,0.0,13.935237363074853,,,9,38.83158493041992,1575420000,1
Agc,1725970911599,6105000000,,,-1410006123494723327,0.0,13.935237363074853,,,9,26.67449951171875,1176450000,1
Agc,1725970911599,6105000000,,,-1410006123494723327,0.0,13.935237363074853,,,9,61.720664978027344,1602000000,3
Agc,1725970911599,6105000000,,,-1410006123494723327,0.0,13.935237363074853,,,9,38.83158493041992,1575420000,6
Agc,1725970911599,6105000000,,,-1410006123494723327,0.0,13.935237363074853,,,9,26.67449951171875,1176450000,6
Agc,1725970911599,6105000000,,,-1410006123494723327,0.0,13.935237363074853,,,9,61.52764129638672,1561096000,5
Agc,1725970911599,6105000000,,,-1410006123494723327,0.0,13.935237363074853,,,9,38.83158493041992,1575420000,5
Agc,1725970911599,6105000000,,,-1410006123494723327,0.0,13.935237363074853,,,9,26.67449951171875,1176450000,5
Agc,1725970912599,7105000000,,,-1410006123494723439,0.0,10.840784581934596,,,9,37.883094787597656,1575420000,1
Agc,1725970912599,7105000000,,,-1410006123494723439,0.0,10.840784581934596,,,9,28.704256057739258,1176450000,1
Agc,1725970912599,7105000000,,,-1410006123494723439,0.0,10.840784581934596,,,9,60.381736755371094,1602000000,3
Agc,1725970912599,7105000000,,,-1410006123494723439,0.0,10.840784581934596,,,9,37.883094787597656,1575420000,6
Agc,1725970912599,7105000000,,,-1410006123494723439,0.0,10.840784581934596,,,9,28.704256057739258,1176450000,6
Agc,1725970912599,7105000000,,,-1410006123494723439,0.0,10.840784581934596,,,9,62.62626647949219,1561096000,5
Agc,1725970912599,7105000000,,,-1410006123494723439,0.0,10.840784581934596,,,9,37.883094787597656,1575420000,5
Agc,1725970912599,7105000000,,,-1410006123494723439,0.0,10.840784581934596,,,9,28.704256057739258,1176450000,5
Agc,1725970912999,7505000000,,,-1410006123494723485,0.0,8.420880896506787,,,9,41.4049186706543,1575420000,1
Agc,1725970912999,7505000000,,,-1410006123494723485,0.0,8.420880896506787,,,9,27.962825775146484,1176450000,1
Agc,1725970912999,7505000000,,,-1410006123494723485,0.0,8.420880896506787,,,9,61.12821960449219,1602000000,3
Agc,1725970912999,7505000000,,,-1410006123494723485,0.0,8.420880896506787,,,9,41.4049186706543,1575420000,6
Agc,1725970912999,7505000000,,,-1410006123494723485,0.0,8.420880896506787,,,9,27.962825775146484,1176450000,6
Agc,1725970912999,7505000000,,,-1410006123494723485,0.0,8.420880896506787,,,9,61.52764129638672,1561096000,5
Agc,1725970912999,7505000000,,,-1410006123494723485,0.0,8.420880896506787,,,9,41.4049186706543,1575420000,5
Agc,1725970912999,7505000000,,,-1410006123494723485,0.0,8.420880896506787,,,9,27.962825775146484,1176450000,5
Agc,1725970913999,8505000000,,,-1410006123494723598,0.0,7.382991991049325,,,9,36.29946517944336,1575420000,1
Agc,1725970913999,8505000000,,,-1410006123494723598,0.0,7.382991991049325,,,9,26.864200592041016,1176450000,1
Agc,1725970913999,8505000000,,,-1410006123494723598,0.0,7.382991991049325,,,9,60.49237823486328,1602000000,3
Agc,1725970913999,8505000000,,,-1410006123494723598,0.0,7.382991991049325,,,9,36.29946517944336,1575420000,6
Agc,1725970913999,8505000000,,,-1410006123494723598,0.0,7.382991991049325,,,9,26.864200592041016,1176450000,6
Agc,1725970913999,8505000000,,,-1410006123494723598,0.0,7.382991991049325,,,9,60.381736755371094,1561096000,5
Agc,1725970913999,8505000000,,,-1410006123494723598,0.0,7.382991991049325,,,9,36.29946517944336,1575420000,5
Agc,1725970913999,8505000000,,,-1410006123494723598,0.0,7.382991991049325,,,9,26.864200592041016,1176450000,5
Agc,1725970914999,9505000000,,,-1410006123494723711,0.0,6.700309579293042,,,9,38.210899353027344,1575420000,1
Agc,1725970914999,9505000000,,,-1410006123494723711,0.0,6.700309579293042,,,9,29.240116119384766,1176450000,1
Agc,1725970914999,9505000000,,,-1410006123494723711,0.0,6.700309579293042,,,9,57.503597259521484,1602000000,3
Agc,1725970914999,9505000000,,,-1410006123494723711,0.0,6.700309579293042,,,9,38.210899353027344,1575420000,6
Agc,1725970914999,9505000000,,,-1410006123494723711,0.0,6.700309579293042,,,9,29.240116119384766,1176450000,6
Agc,1725970914999,9505000000,,,-1410006123494723711,0.0,6.700309579293042,,,9,60.70954132080078,1561096000,5
Agc,1725970914999,9505000000,,,-1410006123494723711,0.0,6.700309579293042,,,9,38.210899353027344,1575420000,5
Agc,1725970914999,9505000000,,,-1410006123494723711,0.0,6.700309579293042,,,9,29.240116119384766,1176450000,5
Agc,1725970915999,10505000000,,,-1410006123494723823,0.0,6.154062013260423,,,9,39.595672607421875,1575420000,1
Agc,1725970915999,10505000000,,,-1410006123494723823,0.0,6.154062013260423,,,9,28.544872283935547,1176450000,1
Agc,1725970915999,10505000000,,,-1410006123494723823,0.0,6.154062013260423,,,9,60.381736755371094,1602000000,3
Agc,1725970915999,10505000000,,,-1410006123494723823,0.0,6.154062013260423,,,9,39.595672607421875,1575420000,6
Agc,1725970915999,10505000000,,,-1410006123494723823,0.0,6.154062013260423,,,9,28.544872283935547,1176450000,6
Agc,1725970915999,10505000000,,,-1410006123494723823,0.0,6.154062013260423,,,9,63.52419662475586,1561096000,5
Agc,1725970915999,10505000000,,,-1410006123494723823,0.0,6.154062013260423,,,9,39.595672607421875,1575420000,5
Agc,1725970915999,10505000000,,,-1410006123494723823,0.0,6.154062013260423,,,9,28.544872283935547,1176450000,5
Agc,1725970916999,11505000000,,,-1410006123494723935,0.0,5.631738818651155,,,9,41.02555847167969,1575420000,1
Agc,1725970916999,11505000000,,,-1410006123494723935,0.0,5.631738818651155,,,9,25.704256057739258,1176450000,1
Agc,1725970916999,11505000000,,,-1410006123494723935,0.0,5.631738818651155,,,9,59.924476623535156,1602000000,3
Agc,1725970916999,11505000000,,,-1410006123494723935,0.0,5.631738818651155,,,9,41.02555847167969,1575420000,6
Agc,1725970916999,11505000000,,,-1410006123494723935,0.0,5.631738818651155,,,9,25.704256057739258,1176450000,6
Agc,1725970916999,11505000000,,,-1410006123494723935,0.0,5.631738818651155,,,9,61.12821960449219,1561096000,5
Agc,1725970916999,11505000000,,,-1410006123494723935,0.0,5.631738818651155,,,9,41.02555847167969,1575420000,5
Agc,1725970916999,11505000000,,,-1410006123494723935,0.0,5.631738818651155,,,9,25.704256057739258,1176450000,5
Agc,1725970917999,12505000000,,,-1410006123494724047,0.0,5.104863050687737,,,9,41.979400634765625,1575420000,1
Agc,1725970917999,12505000000,,,-1410006123494724047,0.0,5.104863050687737,,,9,28.13314437866211,1176450000,1
Agc,1725970917999,12505000000,,,-1410006123494724047,0.0,5.104863050687737,,,9,61.12821960449219,1602000000,3
Agc,1725970917999,12505000000,,,-1410006123494724047,0.0,5.104863050687737,,,9,41.979400634765625,1575420000,6
Agc,1725970917999,12505000000,,,-1410006123494724047,0.0,5.104863050687737,,,9,28.13314437866211,1176450000,6
Agc,1725970917999,12505000000,,,-1410006123494724047,0.0,5.104863050687737,,,9,63.20831298828125,1561096000,5
Agc,1725970917999,12505000000,,,-1410006123494724047,0.0,5.104863050687737,,,9,41.979400634765625,1575420000,5
Agc,1725970917999,12505000000,,,-1410006123494724047,0.0,5.104863050687737,,,9,28.13314437866211,1176450000,5
Agc,1725970918999,13505000000,,,-1410006123494724160,0.0,4.722594015512458,,,9,40.127628326416016,1575420000,1
Agc,1725970918999,13505000000,,,-1410006123494724160,0.0,4.722594015512458,,,9,28.30018424987793,1176450000,1
Agc,1725970918999,13505000000,,,-1410006123494724160,0.0,4.722594015512458,,,9,58.31734085083008,1602000000,3
Agc,1725970918999,13505000000,,,-1410006123494724160,0.0,4.722594015512458,,,9,40.127628326416016,1575420000,6
Agc,1725970918999,13505000000,,,-1410006123494724160,0.0,4.722594015512458,,,9,28.30018424987793,1176450000,6
Agc,1725970918999,13505000000,,,-1410006123494724160,0.0,4.722594015512458,,,9,63.367698669433594,1561096000,5
Agc,1725970918999,13505000000,,,-1410006123494724160,0.0,4.722594015512458,,,9,40.127628326416016,1575420000,5
Agc,1725970918999,13505000000,,,-1410006123494724160,0.0,4.722594015512458,,,9,28.30018424987793,1176450000,5
Agc,1725970919999,14505000000,,,-1410006123494724272,0.0,4.506467067105075,,,9,37.657474517822266,1575420000,1
Agc,1725970919999,14505000000,,,-1410006123494724272,0.0,4.506467067105075,,,9,25.860759735107422,1176450000,1
Agc,1725970919999,14505000000,,,-1410006123494724272,0.0,4.506467067105075,,,9,58.45743942260742,1602000000,3
Agc,1725970919999,14505000000,,,-1410006123494724272,0.0,4.506467067105075,,,9,37.657474517822266,1575420000,6
Agc,1725970919999,14505000000,,,-1410006123494724272,0.0,4.506467067105075,,,9,25.860759735107422,1176450000,6
Agc,1725970919999,14505000000,,,-1410006123494724272,0.0,4.506467067105075,,,9,60.381736755371094,1561096000,5
Agc,1725970919999,14505000000,,,-1410006123494724272,0.0,4.506467067105075,,,9,37.657474517822266,1575420000,5
Agc,1725970919999,14505000000,,,-1410006123494724272,0.0,4.506467067105075,,,9,25.860759735107422,1176450000,5
Agc,1725970920999,15505000000,,,-1410006123494724385,0.0,4.373018890825298,-110.0,1.0,9,37.42583465576172,1575420000,1
Agc,1725970920999,15505000000,,,-1410006123494724385,0.0,4.373018890825298,-110.0,1.0,9,25.30018424987793,1176450000,1
Agc,1725970920999,15505000000,,,-1410006123494724385,0.0,4.373018890825298,-110.0,1.0,9,60.381736755371094,1602000000,3
Agc,1725970920999,15505000000,,,-1410006123494724385,0.0,4.373018890825298,-110.0,1.0,9,37.42583465576172,1575420000,6
Agc,1725970920999,15505000000,,,-1410006123494724385,0.0,4.373018890825298,-110.0,1.0,9,25.30018424987793,1176450000,6
Agc,1725970920999,15505000000,,,-1410006123494724385,0.0,4.373018890825298,-110.0,1.0,9,63.367698669433594,1561096000,5
Agc,1725970920999,15505000000,,,-1410006123494724385,0.0,4.373018890825298,-110.0,1.0,9,37.42583465576172,1575420000,5
Agc,1725970920999,15505000000,,,-1410006123494724385,0.0,4.373018890825298,-110.0,1.0,9,25.30018424987793,1176450000,5
Agc,1725970921999,16505000000,,,-1410006123494724499,0.0,4.449421720490802,,,9,37.657474517822266,1575420000,1
Agc,1725970921999,16505000000,,,-1410006123494724499,0.0,4.449421720490802,,,9,27.430871963500977,1176450000,1
Agc,1725970921999,16505000000,,,-1410006123494724499,0.0,4.449421720490802,,,9,59.06133270263672,1602000000,3
Agc,1725970921999,16505000000,,,-1410006123494724499,0.0,4.449421720490802,,,9,37.657474517822266,1575420000,6
Agc,1725970921999,16505000000,,,-1410006123494724499,0.0,4.449421720490802,,,9,27.430871963500977,1176450000,6
Agc,1725970921999,16505000000,,,-1410006123494724499,0.0,4.449421720490802,,,9,62.09431457519531,1561096000,5
Agc,1725970921999,16505000000,,,-1410006123494724499,0.0,4.449421720490802,,,9,37.657474517822266,1575420000,5
Agc,1725970921999,16505000000,,,-1410006123494724499,0.0,4.449421720490802,,,9,27.430871963500977,1176450000,5
Agc,1725970922999,17505000000,,,-1410006123494724612,0.0,4.441805733290863,,,9,38.83158493041992,1575420000,1
Agc,1725970922999,17505000000,,,-1410006123494724612,0.0,4.441805733290863,,,9,26.240116119384766,1176450000,1
Agc,1725970922999,17505000000,,,-1410006123494724612,0.0,4.441805733290863,,,9,59.19001770019531,1602000000,3
Agc,1725970922999,17505000000,,,-1410006123494724612,0.0,4.441805733290863,,,9,38.83158493041992,1575420000,6
Agc,1725970922999,17505000000,,,-1410006123494724612,0.0,4.441805733290863,,,9,26.240116119384766,1176450000,6
Agc,1725970922999,17505000000,,,-1410006123494724612,0.0,4.441805733290863,,,9,60.15611267089844,1561096000,5
Agc,1725970922999,17505000000,,,-1410006123494724612,0.0,4.441805733290863,,,9,38.83158493041992,1575420000,5
Agc,1725970922999,17505000000,,,-1410006123494724612,0.0,4.441805733290863,,,9,26.240116119384766,1176450000,5
Agc,1725970923999,18505000000,,,-1410006123494724725,0.0,4.408590915204355,,,9,37.42583465576172,1575420000,1
Agc,1725970923999,18505000000,,,-1410006123494724725,0.0,4.408590915204355,,,9,29.090354919433594,1176450000,1
Agc,1725970923999,18505000000,,,-1410006123494724725,0.0,4.408590915204355,,,9,59.924476623535156,1602000000,3
Agc,1725970923999,18505000000,,,-1410006123494724725,0.0,4.408590915204355,,,9,37.42583465576172,1575420000,6
Agc,1725970923999,18505000000,,,-1410006123494724725,0.0,4.408590915204355,,,9,29.090354919433594,1176450000,6
Agc,1725970923999,18505000000,,,-1410006123494724725,0.0,4.408590915204355,,,9,61.12821960449219,1561096000,5
Agc,1725970923999,18505000000,,,-1410006123494724725,0.0,4.408590915204355,,,9,37.42583465576172,1575420000,5
Agc,1725970923999,18505000000,,,-1410006123494724725,0.0,4.408590915204355,,,9,29.090354919433594,1176450000,5
Agc,1725970924999,19505000000,,,-1410006123494724837,0.0,4.396103447861023,,,9,38.210899353027344,1575420000,1
Agc,1725970924999,19505000000,,,-1410006123494724837,0.0,4.396103447861023,,,9,26.240116119384766,1176450000,1
Agc,1725970924999,19505000000,,,-1410006123494724837,0.0,4.396103447861023,,,9,57.73319625854492,1602000000,3
Agc,1725970924999,19505000000,,,-1410006123494724837,0.0,4.396103447861023,,,9,38.210899353027344,1575420000,6
Agc,1725970924999,19505000000,,,-1410006123494724837,0.0,4.396103447861023,,,9,26.240116119384766,1176450000,6
Agc,1725970924999,19505000000,,,-1410006123494724837,0.0,4.396103447861023,,,9,62.09431457519531,1561096000,5
Agc,1725970924999,19505000000,,,-1410006123494724837,0.0,4.396103447861023,,,9,38.210899353027344,1575420000,5
Agc,1725970924999,19505000000,,,-1410006123494724837,0.0,4.396103447861023,,,9,26.240116119384766,1176450000,5
Agc,1725970925999,20505000000,,,-1410006123494724950,0.0,4.386347365474426,,,9,40.70967483520508,1575420000,1
Agc,1725970925999,20505000000,,,-1410006123494724950,0.0,4.386347365474426,,,9,29.240116119384766,1176450000,1
Agc,1725970925999,20505000000,,,-1410006123494724950,0.0,4.386347365474426,,,9,62.09431457519531,1602000000,3
Agc,1725970925999,20505000000,,,-1410006123494724950,0.0,4.386347365474426,,,9,40.70967483520508,1575420000,6
Agc,1725970925999,20505000000,,,-1410006123494724950,0.0,4.386347365474426,,,9,29.240116119384766,1176450000,6
Agc,1725970925999,20505000000,,,-1410006123494724950,0.0,4.386347365474426,,,9,62.09431457519531,1561096000,5
Agc,1725970925999,20505000000,,,-1410006123494724950,0.0,4.386347365474426,,,9,40.70967483520508,1575420000,5
Agc,1725970925999,20505000000,,,-1410006123494724950,0.0,4.386347365474426,,,9,29.240116119384766,1176450000,5
Agc,1725970926999,21505000000,,,-1410006123494725061,0.0,5.2975336492315375,,,9,37.993743896484375,1575420000,1
Agc,1725970926999,21505000000,,,-1410006123494725061,0.0,5.2975336492315375,,,9,26.460023880004883,1176450000,1
Agc,1725970926999,21505000000,,,-1410006123494725061,0.0,5.2975336492315375,,,9,58.10286331176758,1602000000,3
Agc,1725970926999,21505000000,,,-1410006123494725061,0.0,5.2975336492315375,,,9,37.993743896484375,1575420000,6
Agc,1725970926999,21505000000,,,-1410006123494725061,0.0,5.2975336492315375,,,9,26.460023880004883,1176450000,6
Agc,1725970926999,21505000000,,,-1410006123494725061,0.0,5.2975336492315375,,,9,61.52764129638672,1561096000,5
Agc,1725970926999,21505000000,,,-1410006123494725061,0.0,5.2975336492315375,,,9,37.993743896484375,1575420000,5
Agc,1725970926999,21505000000,,,-1410006123494725061,0.0,5.2975336492315375,,,9,26.460023880004883,1176450000,5
Agc,1725970927999,22505000000,,,-1410006123494725173,0.0,5.368162754982087,,,9,41.83930206298828,1575420000,1
Agc,1725970927999,22505000000,,,-1410006123494725173,0.0,5.368162754982087,,,9,27.057228088378906,1176450000,1
Agc,1725970927999,22505000000,,,-1410006123494725173,0.0,5.368162754982087,,,9,60.381736755371094,1602000000,3
Agc,1725970927999,22505000000,,,-1410006123494725173,0.0,5.368162754982087,,,9,41.83930206298828,1575420000,6
Agc,1725970927999,22505000000,,,-1410006123494725173,0.0,5.368162754982087,,,9,27.057228088378906,1176450000,6
Agc,1725970927999,22505000000,,,-1410006123494725173,0.0,5.368162754982087,,,9,62.62626647949219,1561096000,5
Agc,1725970927999,22505000000,,,-1410006123494725173,0.0,5.368162754982087,,,9,41.83930206298828,1575420000,5
Agc,1725970927999,22505000000,,,-1410006123494725173,0.0,5.368162754982087,,,9,27.057228088378906,1176450000,5
Agc,1725970928999,23505000000,,,-1410006123494725285,0.0,5.216243831486503,,,9,37.883094787597656,1575420000,1
Agc,1725970928999,23505000000,,,-1410006123494725285,0.0,5.216243831486503,,,9,26.464778900146484,1176450000,1
Agc,1725970928999,23505000000,,,-1410006123494725285,0.0,5.216243831486503,,,9,61.33022689819336,1602000000,3
Agc,1725970928999,23505000000,,,-1410006123494725285,0.0,5.216243831486503,,,9,37.883094787597656,1575420000,6
Agc,1725970928999,23505000000,,,-1410006123494725285,0.0,5.216243831486503,,,9,26.464778900146484,1176450000,6
Agc,1725970928999,23505000000,,,-1410006123494725285,0.0,5.216243831486503,,,9,62.62626647949219,1561096000,5
Agc,1725970928999,23505000000,,,-1410006123494725285,0.0,5.216243831486503,,,9,37.883094787597656,1575420000,5
Agc,1725970928999,23505000000,,,-1410006123494725285,0.0,5.216243831486503,,,9,26.464778900146484,1176450000,5
Agc,1725970929999,24505000000,,,-1410006123494725397,0.0,5.096237059442069,,,9,41.02555847167969,1575420000,1
Agc,1725970929999,24505000000,,,-1410006123494725397,0.0,5.096237059442069,,,9,24.962825775146484,1176450000,1
Agc,1725970929999,24505000000,,,-1410006123494725397,0.0,5.096237059442069,,,9,58.7981071472168,1602000000,3
Agc,1725970929999,24505000000,,,-1410006123494725397,0.0,5.096237059442069,,,9,41.02555847167969,1575420000,6
Agc,1725970929999,24505000000,,,-1410006123494725397,0.0,5.096237059442069,,,9,24.962825775146484,1176450000,6
Agc,1725970929999,24505000000,,,-1410006123494725397,0.0,5.096237059442069,,,9,63.20831298828125,1561096000,5
Agc,1725970929999,24505000000,,,-1410006123494725397,0.0,5.096237059442069,,,9,41.02555847167969,1575420000,5
Agc,1725970929999,24505000000,,,-1410006123494725397,0.0,5.096237059442069,,,9,24.962825775146484,1176450000,5
Agc,1725970930999,25505000000,,,-1410006123494725511,0.0,4.893728862437114,-111.0,1.0,9,39.22203063964844,1575420000,1
Agc,1725970930999,25505000000,,,-1410006123494725511,0.0,4.893728862437114,-111.0,1.0,9,27.152156829833984,1176450000,1
Agc,1725970930999,25505000000,,,-1410006123494725511,0.0,4.893728862437114,-111.0,1.0,9,61.720664978027344,1602000000,3
Agc,1725970930999,25505000000,,,-1410006123494725511,0.0,4.893728862437114,-111.0,1.0,9,39.22203063964844,1575420000,6
Agc,1725970930999,25505000000,,,-1410006123494725511,0.0,4.893728862437114,-111.0,1.0,9,27.152156829833984,1176450000,6
Agc,1725970930999,25505000000,,,-1410006123494725511,0.0,4.893728862437114,-111.0,1.0,9,62.62626647949219,1561096000,5
Agc,1725970930999,25505000000,,,-1410006123494725511,0.0,4.893728862437114,-111.0,1.0,9,39.22203063964844,1575420000,5
Agc,1725970930999,25505000000,,,-1410006123494725511,0.0,4.893728862437114,-111.0,1.0,9,27.152156829833984,1176450000,5
Agc,1725970931999,26505000000,,,-1410006123494725623,0.0,4.7680159651737,-112.0,1.0,9,40.70967483520508,1575420000,1
Agc,1725970931999,26505000000,,,-1410006123494725623,0.0,4.7680159651737,-112.0,1.0,9,29.240116119384766,1176450000,1
Agc,1725970931999,26505000000,,,-1410006123494725623,0.0,4.7680159651737,-112.0,1.0,9,60.15611267089844,1602000000,3
Agc,1725970931999,26505000000,,,-1410006123494725623,0.0,4.7680159651737,-112.0,1.0,9,40.70967483520508,1575420000,6
Agc,1725970931999,26505000000,,,-1410006123494725623,0.0,4.7680159651737,-112.0,1.0,9,29.240116119384766,1176450000,6
Agc,1725970931999,26505000000,,,-1410006123494725623,0.0,4.7680159651737,-112.0,1.0,9,62.62626647949219,1561096000,5
Agc,1725970931999,26505000000,,,-1410006123494725623,0.0,4.7680159651737,-112.0,1.0,9,40.70967483520508,1575420000,5
Agc,1725970931999,26505000000,,,-1410006123494725623,0.0,4.7680159651737,-112.0,1.0,9,29.240116119384766,1176450000,5
Agc,1725970932999,27505000000,,,-1410006123494725734,0.0,4.653705775002932,-110.0,1.0,9,39.776634216308594,1575420000,1
Agc,1725970932999,27505000000,,,-1410006123494725734,0.0,4.653705775002932,-110.0,1.0,9,28.544872283935547,1176450000,1
Agc,1725970932999,27505000000,,,-1410006123494725734,0.0,4.653705775002932,-110.0,1.0,9,59.06133270263672,1602000000,3
Agc,1725970932999,27505000000,,,-1410006123494725734,0.0,4.653705775002932,-110.0,1.0,9,39.776634216308594,1575420000,6
Agc,1725970932999,27505000000,,,-1410006123494725734,0.0,4.653705775002932,-110.0,1.0,9,28.544872283935547,1176450000,6
Agc,1725970932999,27505000000,,,-1410006123494725734,0.0,4.653705775002932,-110.0,1.0,9,63.90355682373047,1561096000,5
Agc,1725970932999,27505000000,,,-1410006123494725734,0.0,4.653705775002932,-110.0,1.0,9,39.776634216308594,1575420000,5
Agc,1725970932999,27505000000,,,-1410006123494725734,0.0,4.653705775002932,-110.0,1.0,9,28.544872283935547,1176450000,5
Agc,1725970933999,28505000000,,,-1410006123494725845,0.0,4.560994561114012,-110.0,1.0,9,38.62957763671875,1575420000,1
Agc,1725970933999,28505000000,,,-1410006123494725845,0.0,4.560994561114012,-110.0,1.0,9,28.544872283935547,1176450000,1
Agc,1725970933999,28505000000,,,-1410006123494725845,0.0,4.560994561114012,-110.0,1.0,9,61.720664978027344,1602000000,3
Agc,1725970933999,28505000000,,,-1410006123494725845,0.0,4.560994561114012,-110.0,1.0,9,38.62957763671875,1575420000,6
Agc,1725970933999,28505000000,,,-1410006123494725845,0.0,4.560994561114012,-110.0,1.0,9,28.544872283935547,1176450000,6
Agc,1725970933999,28505000000,,,-1410006123494725845,0.0,4.560994561114012,-110.0,1.0,9,61.81559371948242,1561096000,5
Agc,1725970933999,28505000000,,,-1410006123494725845,0.0,4.560994561114012,-110.0,1.0,9,38.62957763671875,1575420000,5
Agc,1725970933999,28505000000,,,-1410006123494725845,0.0,4.560994561114012,-110.0,1.0,9,28.544872283935547,1176450000,5
Agc,1725970934999,29505000000,,,-1410006123494725956,0.0,4.488258761885402,-110.0,1.0,9,38.62957763671875,1575420000,1
Agc,1725970934999,29505000000,,,-1410006123494725956,0.0,4.488258761885402,-110.0,1.0,9,27.430871963500977,1176450000,1
Agc,1725970934999,29505000000,,,-1410006123494725956,0.0,4.488258761885402,-110.0,1.0,9,59.806297302246094,1602000000,3
Agc,1725970934999,29505000000,,,-1410006123494725956,0.0,4.488258761885402,-110.0,1.0,9,38.62957763671875,1575420000,6
Agc,1725970934999,29505000000,,,-1410006123494725956,0.0,4.488258761885402,-110.0,1.0,9,27.430871963500977,1176450000,6
Agc,1725970934999,29505000000,,,-1410006123494725956,0.0,4.488258761885402,-110.0,1.0,9,63.90355682373047,1561096000,5
Agc,1725970934999,29505000000,,,-1410006123494725956,0.0,4.488258761885402,-110.0,1.0,9,38.62957763671875,1575420000,5
Agc,1725970934999,29505000000,,,-1410006123494725956,0.0,4.488258761885402,-110.0,1.0,9,27.430871963500977,1176450000,5
Agc,1725970935999,30505000000,,,-1410006123494726069,0.0,4.419250434280676,-111.0,1.0,9,41.62482452392578,1575420000,1
Agc,1725970935999,30505000000,,,-1410006123494726069,0.0,4.419250434280676,-111.0,1.0,9,27.611833572387695,1176450000,1
Agc,1725970935999,30505000000,,,-1410006123494726069,0.0,4.419250434280676,-111.0,1.0,9,60.15611267089844,1602000000,3
Agc,1725970935999,30505000000,,,-1410006123494726069,0.0,4.419250434280676,-111.0,1.0,9,41.62482452392578,1575420000,6
Agc,1725970935999,30505000000,,,-1410006123494726069,0.0,4.419250434280676,-111.0,1.0,9,27.611833572387695,1176450000,6
Agc,1725970935999,30505000000,,,-1410006123494726069,0.0,4.419250434280676,-111.0,1.0,9,63.20831298828125,1561096000,5
Agc,1725970935999,30505000000,,,-1410006123494726069,0.0,4.419250434280676,-111.0,1.0,9,41.62482452392578,1575420000,5
Agc,1725970935999,30505000000,,,-1410006123494726069,0.0,4.419250434280676,-111.0,1.0,9,27.611833572387695,1176450000,5
Agc,1725970936999,31505000000,,,-1410006123494726182,0.0,4.374562924569222,-113.0,1.0,9,42.320068359375,1575420000,1
Agc,1725970936999,31505000000,,,-1410006123494726182,0.0,4.374562924569222,-113.0,1.0,9,27.611833572387695,1176450000,1
Agc,1725970936999,31505000000,,,-1410006123494726182,0.0,4.374562924569222,-113.0,1.0,9,60.15611267089844,1602000000,3
Agc,1725970936999,31505000000,,,-1410006123494726182,0.0,4.374562924569222,-113.0,1.0,9,42.320068359375,1575420000,6
Agc,1725970936999,31505000000,,,-1410006123494726182,0.0,4.374562924569222,-113.0,1.0,9,27.611833572387695,1176450000,6
Agc,1725970936999,31505000000,,,-1410006123494726182,0.0,4.374562924569222,-113.0,1.0,9,63.20831298828125,1561096000,5
Agc,1725970936999,31505000000,,,-1410006123494726182,0.0,4.374562924569222,-113.0,1.0,9,42.320068359375,1575420000,5
Agc,1725970936999,31505000000,,,-1410006123494726182,0.0,4.374562924569222,-113.0,1.0,9,27.611833572387695,1176450000,5
Agc,1725970937999,32505000000,,,-1410006123494726294,0.0,4.330453582528038,-111.0,1.0,9,40.70967483520508,1575420000,1
Agc,1725970937999,32505000000,,,-1410006123494726294,0.0,4.330453582528038,-111.0,1.0,9,28.544872283935547,1176450000,1
Agc,1725970937999,32505000000,,,-1410006123494726294,0.0,4.330453582528038,-111.0,1.0,9,58.10286331176758,1602000000,3
Agc,1725970937999,32505000000,,,-1410006123494726294,0.0,4.330453582528038,-111.0,1.0,9,40.70967483520508,1575420000,6
Agc,1725970937999,32505000000,,,-1410006123494726294,0.0,4.330453582528038,-111.0,1.0,9,28.544872283935547,1176450000,6
Agc,1725970937999,32505000000,,,-1410006123494726294,0.0,4.330453582528038,-111.0,1.0,9,63.367698669433594,1561096000,5
Agc,1725970937999,32505000000,,,-1410006123494726294,0.0,4.330453582528038,-111.0,1.0,9,40.70967483520508,1575420000,5
Agc,1725970937999,32505000000,,,-1410006123494726294,0.0,4.330453582528038,-111.0,1.0,9,28.544872283935547,1176450000,5
Agc,1725970938999,33505000000,,,-1410006123494726406,0.0,4.28453895766496,-111.0,1.0,9,39.776634216308594,1575420000,1
Agc,1725970938999,33505000000,,,-1410006123494726406,0.0,4.28453895766496,-111.0,1.0,9,24.962825775146484,1176450000,1
Agc,1725970938999,33505000000,,,-1410006123494726406,0.0,4.28453895766496,-111.0,1.0,9,61.81559371948242,1602000000,3
Agc,1725970938999,33505000000,,,-1410006123494726406,0.0,4.28453895766496,-111.0,1.0,9,39.776634216308594,1575420000,6
Agc,1725970938999,33505000000,,,-1410006123494726406,0.0,4.28453895766496,-111.0,1.0,9,24.962825775146484,1176450000,6
Agc,1725970938999,33505000000,,,-1410006123494726406,0.0,4.28453895766496,-111.0,1.0,9,61.12821960449219,1561096000,5
Agc,1725970938999,33505000000,,,-1410006123494726406,0.0,4.28453895766496,-111.0,1.0,9,39.776634216308594,1575420000,5
Agc,1725970938999,33505000000,,,-1410006123494726406,0.0,4.28453895766496,-111.0,1.0,9,24.962825775146484,1176450000,5
Agc,1725970939999,34505000000,,,-1410006123494726518,0.0,4.246817692393319,-112.0,1.0,9,38.83158493041992,1575420000,1
Agc,1725970939999,34505000000,,,-1410006123494726518,0.0,4.246817692393319,-112.0,1.0,9,23.464778900146484,1176450000,1
Agc,1725970939999,34505000000,,,-1410006123494726518,0.0,4.246817692393319,-112.0,1.0,9,62.09431457519531,1602000000,3
Agc,1725970939999,34505000000,,,-1410006123494726518,0.0,4.246817692393319,-112.0,1.0,9,38.83158493041992,1575420000,6
Agc,1725970939999,34505000000,,,-1410006123494726518,0.0,4.246817692393319,-112.0,1.0,9,23.464778900146484,1176450000,6
Agc,1725970939999,34505000000,,,-1410006123494726518,0.0,4.246817692393319,-112.0,1.0,9,63.367698669433594,1561096000,5
Agc,1725970939999,34505000000,,,-1410006123494726518,0.0,4.246817692393319,-112.0,1.0,9,38.83158493041992,1575420000,5
Agc,1725970939999,34505000000,,,-1410006123494726518,0.0,4.246817692393319,-112.0,1.0,9,23.464778900146484,1176450000,5
Agc,1725970940999,35505000000,,,-1410006123494726632,0.0,4.224126798351795,-111.0,1.0,9,38.42276382446289,1575420000,1
Agc,1725970940999,35505000000,,,-1410006123494726632,0.0,4.224126798351795,-111.0,1.0,9,27.78910255432129,1176450000,1
Agc,1725970940999,35505000000,,,-1410006123494726632,0.0,4.224126798351795,-111.0,1.0,9,62.79658126831055,1602000000,3
Agc,1725970940999,35505000000,,,-1410006123494726632,0.0,4.224126798351795,-111.0,1.0,9,38.42276382446289,1575420000,6
Agc,1725970940999,35505000000,,,-1410006123494726632,0.0,4.224126798351795,-111.0,1.0,9,27.78910255432129,1176450000,6
Agc,1725970940999,35505000000,,,-1410006123494726632,0.0,4.224126798351795,-111.0,1.0,9,63.367698669433594,1561096000,5
Agc,1725970940999,35505000000,,,-1410006123494726632,0.0,4.224126798351795,-111.0,1.0,9,38.42276382446289,1575420000,5
Agc,1725970940999,35505000000,,,-1410006123494726632,0.0,4.224126798351795,-111.0,1.0,9,27.78910255432129,1176450000,5
Agc,1725970941999,36505000000,,,-1410006123494726746,0.0,4.202966418315,-113.0,1.0,9,37.993743896484375,1575420000,1
Agc,1725970941999,36505000000,,,-1410006123494726746,0.0,4.202966418315,-113.0,1.0,9,26.460023880004883,1176450000,1
Agc,1725970941999,36505000000,,,-1410006123494726746,0.0,4.202966418315,-113.0,1.0,9,59.06133270263672,1602000000,3
Agc,1725970941999,36505000000,,,-1410006123494726746,0.0,4.202966418315,-113.0,1.0,9,37.993743896484375,1575420000,6
Agc,1725970941999,36505000000,,,-1410006123494726746,0.0,4.202966418315,-113.0,1.0,9,26.460023880004883,1176450000,6
Agc,1725970941999,36505000000,,,-1410006123494726746,0.0,4.202966418315,-113.0,1.0,9,60.381736755371094,1561096000,5
Agc,1725970941999,36505000000,,,-1410006123494726746,0.0,4.202966418315,-113.0,1.0,9,37.993743896484375,1575420000,5
Agc,1725970941999,36505000000,,,-1410006123494726746,0.0,4.202966418315,-113.0,1.0,9,26.460023880004883,1176450000,5
Agc,1725970942999,37505000000,,,-1410006123494726859,0.0,4.171380331162078,-113.0,1.0,9,38.210899353027344,1575420000,1
Agc,1725970942999,37505000000,,,-1410006123494726859,0.0,4.171380331162078,-113.0,1.0,9,28.544872283935547,1176450000,1
Agc,1725970942999,37505000000,,,-1410006123494726859,0.0,4.171380331162078,-113.0,1.0,9,59.06133270263672,1602000000,3
Agc,1725970942999,37505000000,,,-1410006123494726859,0.0,4.171380331162078,-113.0,1.0,9,38.210899353027344,1575420000,6
Agc,1725970942999,37505000000,,,-1410006123494726859,0.0,4.171380331162078,-113.0,1.0,9,28.544872283935547,1176450000,6
Agc,1725970942999,37505000000,,,-1410006123494726859,0.0,4.171380331162078,-113.0,1.0,9,62.452545166015625,1561096000,5
Agc,1725970942999,37505000000,,,-1410006123494726859,0.0,4.171380331162078,-113.0,1.0,9,38.210899353027344,1575420000,5
Agc,1725970942999,37505000000,,,-1410006123494726859,0.0,4.171380331162078,-113.0,1.0,9,28.544872283935547,1176450000,5
Agc,1725970943999,38505000000,,,-1410006123494726972,0.0,4.1497026222813895,-111.0,1.0,9,39.02899932861328,1575420000,1
Agc,1725970943999,38505000000,,,-1410006123494726972,0.0,4.1497026222813895,-111.0,1.0,9,27.78910255432129,1176450000,1
Agc,1725970943999,38505000000,,,-1410006123494726972,0.0,4.1497026222813895,-111.0,1.0,9,55.50703811645508,1602000000,3
Agc,1725970943999,38505000000,,,-1410006123494726972,0.0,4.1497026222813895,-111.0,1.0,9,39.02899932861328,1575420000,6
Agc,1725970943999,38505000000,,,-1410006123494726972,0.0,4.1497026222813895,-111.0,1.0,9,27.78910255432129,1176450000,6
Agc,1725970943999,38505000000,,,-1410006123494726972,0.0,4.1497026222813895,-111.0,1.0,9,62.09431457519531,1561096000,5
Agc,1725970943999,38505000000,,,-1410006123494726972,0.0,4.1497026222813895,-111.0,1.0,9,39.02899932861328,1575420000,5
Agc,1725970943999,38505000000,,,-1410006123494726972,0.0,4.1497026222813895,-111.0,1.0,9,27.78910255432129,1176450000,5
Agc,1725970944999,39505000000,,,-1410006123494727084,0.0,4.120750100795735,-111.0,1.0,9,39.776634216308594,1575420000,1
Agc,1725970944999,39505000000,,,-1410006123494727084,0.0,4.120750100795735,-111.0,1.0,9,28.544872283935547,1176450000,1
Agc,1725970944999,39505000000,,,-1410006123494727084,0.0,4.120750100795735,-111.0,1.0,9,59.19001770019531,1602000000,3
Agc,1725970944999,39505000000,,,-1410006123494727084,0.0,4.120750100795735,-111.0,1.0,9,39.776634216308594,1575420000,6
Agc,1725970944999,39505000000,,,-1410006123494727084,0.0,4.120750100795735,-111.0,1.0,9,28.544872283935547,1176450000,6
Agc,1725970944999,39505000000,,,-1410006123494727084,0.0,4.120750100795735,-111.0,1.0,9,61.720664978027344,1561096000,5
Agc,1725970944999,39505000000,,,-1410006123494727084,0.0,4.120750100795735,-111.0,1.0,9,39.776634216308594,1575420000,5
Agc,1725970944999,39505000000,,,-1410006123494727084,0.0,4.120750100795735,-111.0,1.0,9,28.544872283935547,1176450000,5
Agc,1725970945999,40505000000,,,-1410006123494727196,0.0,4.091799169867634,-111.0,1.0,9,37.883094787597656,1575420000,1
Agc,1725970945999,40505000000,,,-1410006123494727196,0.0,4.091799169867634,-111.0,1.0,9,25.860759735107422,1176450000,1
Agc,1725970945999,40505000000,,,-1410006123494727196,0.0,4.091799169867634,-111.0,1.0,9,60.381736755371094,1602000000,3
Agc,1725970945999,40505000000,,,-1410006123494727196,0.0,4.091799169867634,-111.0,1.0,9,37.883094787597656,1575420000,6
Agc,1725970945999,40505000000,,,-1410006123494727196,0.0,4.091799169867634,-111.0,1.0,9,25.860759735107422,1176450000,6
Agc,1725970945999,40505000000,,,-1410006123494727196,0.0,4.091799169867634,-111.0,1.0,9,60.49237823486328,1561096000,5
Agc,1725970945999,40505000000,,,-1410006123494727196,0.0,4.091799169867634,-111.0,1.0,9,37.883094787597656,1575420000,5
Agc,1725970945999,40505000000,,,-1410006123494727196,0.0,4.091799169867634,-111.0,1.0,9,25.860759735107422,1176450000,5
Agc,1725970946999,41505000000,,,-1410006123494727310,0.0,4.083252308860195,-112.0,1.0,9,38.42276382446289,1575420000,1
Agc,1725970946999,41505000000,,,-1410006123494727310,0.0,4.083252308860195,-112.0,1.0,9,29.460023880004883,1176450000,1
Agc,1725970946999,41505000000,,,-1410006123494727310,0.0,4.083252308860195,-112.0,1.0,9,57.73319625854492,1602000000,3
Agc,1725970946999,41505000000,,,-1410006123494727310,0.0,4.083252308860195,-112.0,1.0,9,38.42276382446289,1575420000,6
Agc,1725970946999,41505000000,,,-1410006123494727310,0.0,4.083252308860195,-112.0,1.0,9,29.460023880004883,1176450000,6
Agc,1725970946999,41505000000,,,-1410006123494727310,0.0,4.083252308860195,-112.0,1.0,9,62.27527618408203,1561096000,5
Agc,1725970946999,41505000000,,,-1410006123494727310,0.0,4.083252308860195,-112.0,1.0,9,38.42276382446289,1575420000,5
Agc,1725970946999,41505000000,,,-1410006123494727310,0.0,4.083252308860195,-112.0,1.0,9,29.460023880004883,1176450000,5
Agc,1725970947999,42505000000,,,-1410006123494727422,0.0,4.073164992863326,-112.0,1.0,9,37.993743896484375,1575420000,1
Agc,1725970947999,42505000000,,,-1410006123494727422,0.0,4.073164992863326,-112.0,1.0,9,24.611833572387695,1176450000,1
Agc,1725970947999,42505000000,,,-1410006123494727422,0.0,4.073164992863326,-112.0,1.0,9,61.12821960449219,1602000000,3
Agc,1725970947999,42505000000,,,-1410006123494727422,0.0,4.073164992863326,-112.0,1.0,9,37.993743896484375,1575420000,6
Agc,1725970947999,42505000000,,,-1410006123494727422,0.0,4.073164992863326,-112.0,1.0,9,24.611833572387695,1176450000,6
Agc,1725970947999,42505000000,,,-1410006123494727422,0.0,4.073164992863326,-112.0,1.0,9,62.27527618408203,1561096000,5
Agc,1725970947999,42505000000,,,-1410006123494727422,0.0,4.073164992863326,-112.0,1.0,9,37.993743896484375,1575420000,5
Agc,1725970947999,42505000000,,,-1410006123494727422,0.0,4.073164992863326,-112.0,1.0,9,24.611833572387695,1176450000,5
Agc,1725970948999,43505000000,,,-1410006123494727534,0.0,4.052725533037124,-110.0,1.0,9,39.595672607421875,1575420000,1
Agc,1725970948999,43505000000,,,-1410006123494727534,0.0,4.052725533037124,-110.0,1.0,9,27.057228088378906,1176450000,1
Agc,1725970948999,43505000000,,,-1410006123494727534,0.0,4.052725533037124,-110.0,1.0,9,60.92140197753906,1602000000,3
Agc,1725970948999,43505000000,,,-1410006123494727534,0.0,4.052725533037124,-110.0,1.0,9,39.595672607421875,1575420000,6
Agc,1725970948999,43505000000,,,-1410006123494727534,0.0,4.052725533037124,-110.0,1.0,9,27.057228088378906,1176450000,6
Agc,1725970948999,43505000000,,,-1410006123494727534,0.0,4.052725533037124,-110.0,1.0,9,61.33022689819336,1561096000,5
Agc,1725970948999,43505000000,,,-1410006123494727534,0.0,4.052725533037124,-110.0,1.0,9,39.595672607421875,1575420000,5
Agc,1725970948999,43505000000,,,-1410006123494727534,0.0,4.052725533037124,-110.0,1.0,9,27.057228088378906,1176450000,5
Agc,1725970949999,44505000000,,,-1410006123494727646,0.0,4.0433722593506545,-111.0,1.0,9,41.83930206298828,1575420000,1
Agc,1725970949999,44505000000,,,-1410006123494727646,0.0,4.0433722593506545,-111.0,1.0,9,24.057228088378906,1176450000,1
Agc,1725970949999,44505000000,,,-1410006123494727646,0.0,4.0433722593506545,-111.0,1.0,9,56.07371139526367,1602000000,3
Agc,1725970949999,44505000000,,,-1410006123494727646,0.0,4.0433722593506545,-111.0,1.0,9,41.83930206298828,1575420000,6
Agc,1725970949999,44505000000,,,-1410006123494727646,0.0,4.0433722593506545,-111.0,1.0,9,24.057228088378906,1176450000,6
Agc,1725970949999,44505000000,,,-1410006123494727646,0.0,4.0433722593506545,-111.0,1.0,9,63.367698669433594,1561096000,5
Agc,1725970949999,44505000000,,,-1410006123494727646,0.0,4.0433722593506545,-111.0,1.0,9,41.83930206298828,1575420000,5
Agc,1725970949999,44505000000,,,-1410006123494727646,0.0,4.0433722593506545,-111.0,1.0,9,24.057228088378906,1176450000,5
Agc,1725970950999,45505000000,,,-1410006123494727760,0.0,4.001525485427658,-112.0,1.0,9,40.869056701660156,1575420000,1
Agc,1725970950999,45505000000,,,-1410006123494727760,0.0,4.001525485427658,-112.0,1.0,9,27.78910255432129,1176450000,1
Agc,1725970950999,45505000000,,,-1410006123494727760,0.0,4.001525485427658,-112.0,1.0,9,61.52764129638672,1602000000,3
Agc,1725970950999,45505000000,,,-1410006123494727760,0.0,4.001525485427658,-112.0,1.0,9,40.869056701660156,1575420000,6
Agc,1725970950999,45505000000,,,-1410006123494727760,0.0,4.001525485427658,-112.0,1.0,9,27.78910255432129,1176450000,6
Agc,1725970950999,45505000000,,,-1410006123494727760,0.0,4.001525485427658,-112.0,1.0,9,61.720664978027344,1561096000,5
Agc,1725970950999,45505000000,,,-1410006123494727760,0.0,4.001525485427658,-112.0,1.0,9,40.869056701660156,1575420000,5
Agc,1725970950999,45505000000,,,-1410006123494727760,0.0,4.001525485427658,-112.0,1.0,9,27.78910255432129,1176450000,5
Agc,1725970951999,46505000000,,,-1410006123494727877,0.0,4.009789624830171,-114.0,1.0,9,39.22203063964844,1575420000,1
Agc,1725970951999,46505000000,,,-1410006123494727877,0.0,4.009789624830171,-114.0,1.0,9,24.78910255432129,1176450000,1
Agc,1725970951999,46505000000,,,-1410006123494727877,0.0,4.009789624830171,-114.0,1.0,9,60.381736755371094,1602000000,3
Agc,1725970951999,46505000000,,,-1410006123494727877,0.0,4.009789624830171,-114.0,1.0,9,39.22203063964844,1575420000,6
Agc,1725970951999,46505000000,,,-1410006123494727877,0.0,4.009789624830171,-114.0,1.0,9,24.78910255432129,1176450000,6
Agc,1725970951999,46505000000,,,-1410006123494727877,0.0,4.009789624830171,-114.0,1.0,9,62.79658126831055,1561096000,5
Agc,1725970951999,46505000000,,,-1410006123494727877,0.0,4.009789624830171,-114.0,1.0,9,39.22203063964844,1575420000,5
Agc,1725970951999,46505000000,,,-1410006123494727877,0.0,4.009789624830171,-114.0,1.0,9,24.78910255432129,1176450000,5
Agc,1725970952999,47505000000,,,-1410006123494727993,0.0,4.0062092797798785,-115.0,1.0,9,39.95390319824219,1575420000,1
Agc,1725970952999,47505000000,,,-1410006123494727993,0.0,4.0062092797798785,-115.0,1.0,9,28.544872283935547,1176450000,1
Agc,1725970952999,47505000000,,,-1410006123494727993,0.0,4.0062092797798785,-115.0,1.0,9,61.52764129638672,1602000000,3
Agc,1725970952999,47505000000,,,-1410006123494727993,0.0,4.0062092797798785,-115.0,1.0,9,39.95390319824219,1575420000,6
Agc,1725970952999,47505000000,,,-1410006123494727993,0.0,4.0062092797798785,-115.0,1.0,9,28.544872283935547,1176450000,6
Agc,1725970952999,47505000000,,,-1410006123494727993,0.0,4.0062092797798785,-115.0,1.0,9,62.963626861572266,1561096000,5
Agc,1725970952999,47505000000,,,-1410006123494727993,0.0,4.0062092797798785,-115.0,1.0,9,39.95390319824219,1575420000,5
Agc,1725970952999,47505000000,,,-1410006123494727993,0.0,4.0062092797798785,-115.0,1.0,9,28.544872283935547,1176450000,5
Agc,1725970953999,48505000000,,,-1410006123494728108,0.0,3.9924652719702056,-114.0,1.0,9,37.993743896484375,1575420000,1
Agc,1725970953999,48505000000,,,-1410006123494728108,0.0,3.9924652719702056,-114.0,1.0,9,25.860759735107422,1176450000,1
Agc,1725970953999,48505000000,,,-1410006123494728108,0.0,3.9924652719702056,-114.0,1.0,9,57.187713623046875,1602000000,3
Agc,1725970953999,48505000000,,,-1410006123494728108,0.0,3.9924652719702056,-114.0,1.0,9,37.993743896484375,1575420000,6
Agc,1725970953999,48505000000,,,-1410006123494728108,0.0,3.9924652719702056,-114.0,1.0,9,25.860759735107422,1176450000,6
Agc,1725970953999,48505000000,,,-1410006123494728108,0.0,3.9924652719702056,-114.0,1.0,9,62.452545166015625,1561096000,5
Agc,1725970953999,48505000000,,,-1410006123494728108,0.0,3.9924652719702056,-114.0,1.0,9,37.993743896484375,1575420000,5
Agc,1725970953999,48505000000,,,-1410006123494728108,0.0,3.9924652719702056,-114.0,1.0,9,25.860759735107422,1176450000,5
Agc,1725970954999,49505000000,,,-1410006123494728222,0.0,3.9713935655169528,-113.0,1.0,9,37.993743896484375,1575420000,1
Agc,1725970954999,49505000000,,,-1410006123494728222,0.0,3.9713935655169528,-113.0,1.0,9,27.78910255432129,1176450000,1
Agc,1725970954999,49505000000,,,-1410006123494728222,0.0,3.9713935655169528,-113.0,1.0,9,55.70006561279297,1602000000,3
Agc,1725970954999,49505000000,,,-1410006123494728222,0.0,3.9713935655169528,-113.0,1.0,9,37.993743896484375,1575420000,6
Agc,1725970954999,49505000000,,,-1410006123494728222,0.0,3.9713935655169528,-113.0,1.0,9,27.78910255432129,1176450000,6
Agc,1725970954999,49505000000,,,-1410006123494728222,0.0,3.9713935655169528,-113.0,1.0,9,62.09431457519531,1561096000,5
Agc,1725970954999,49505000000,,,-1410006123494728222,0.0,3.9713935655169528,-113.0,1.0,9,37.993743896484375,1575420000,5
Agc,1725970954999,49505000000,,,-1410006123494728222,0.0,3.9713935655169528,-113.0,1.0,9,27.78910255432129,1176450000,5
Agc,1725970955999,50505000000,,,-1410006123494728338,0.0,4.086874803685624,-113.0,1.0,9,37.657474517822266,1575420000,1
Agc,1725970955999,50505000000,,,-1410006123494728338,0.0,4.086874803685624,-113.0,1.0,9,27.15526580810547,1176450000,1
Agc,1725970955999,50505000000,,,-1410006123494728338,0.0,4.086874803685624,-113.0,1.0,9,58.7981071472168,1602000000,3
Agc,1725970955999,50505000000,,,-1410006123494728338,0.0,4.086874803685624,-113.0,1.0,9,37.657474517822266,1575420000,6
Agc,1725970955999,50505000000,,,-1410006123494728338,0.0,4.086874803685624,-113.0,1.0,9,27.15526580810547,1176450000,6
Agc,1725970955999,50505000000,,,-1410006123494728338,0.0,4.086874803685624,-113.0,1.0,9,61.33022689819336,1561096000,5
Agc,1725970955999,50505000000,,,-1410006123494728338,0.0,4.086874803685624,-113.0,1.0,9,37.657474517822266,1575420000,5
Agc,1725970955999,50505000000,,,-1410006123494728338,0.0,4.086874803685624,-113.0,1.0,9,27.15526580810547,1176450000,5
Agc,1725970956999,51505000000,,,-1410006123494728455,0.0,4.114189050892379,-115.0,1.0,9,36.29946517944336,1575420000,1
Agc,1725970956999,51505000000,,,-1410006123494728455,0.0,4.114189050892379,-115.0,1.0,9,27.962825775146484,1176450000,1
Agc,1725970956999,51505000000,,,-1410006123494728455,0.0,4.114189050892379,-115.0,1.0,9,58.31734085083008,1602000000,3
Agc,1725970956999,51505000000,,,-1410006123494728455,0.0,4.114189050892379,-115.0,1.0,9,36.29946517944336,1575420000,6
Agc,1725970956999,51505000000,,,-1410006123494728455,0.0,4.114189050892379,-115.0,1.0,9,27.962825775146484,1176450000,6
Agc,1725970956999,51505000000,,,-1410006123494728455,0.0,4.114189050892379,-115.0,1.0,9,61.12821960449219,1561096000,5
Agc,1725970956999,51505000000,,,-1410006123494728455,0.0,4.114189050892379,-115.0,1.0,9,36.29946517944336,1575420000,5
Agc,1725970956999,51505000000,,,-1410006123494728455,0.0,4.114189050892379,-115.0,1.0,9,27.962825775146484,1176450000,5
Agc,1725970957999,52505000000,,,-1410006123494728572,0.0,4.0905505821890555,-115.0,1.0,9,40.46498489379883,1575420000,1
Agc,1725970957999,52505000000,,,-1410006123494728572,0.0,4.0905505821890555,-115.0,1.0,9,30.15526580810547,1176450000,1
Agc,1725970957999,52505000000,,,-1410006123494728572,0.0,4.0905505821890555,-115.0,1.0,9,57.503597259521484,1602000000,3
Agc,1725970957999,52505000000,,,-1410006123494728572,0.0,4.0905505821890555,-115.0,1.0,9,40.46498489379883,1575420000,6
Agc,1725970957999,52505000000,,,-1410006123494728572,0.0,4.0905505821890555,-115.0,1.0,9,30.15526580810547,1176450000,6
Agc,1725970957999,52505000000,,,-1410006123494728572,0.0,4.0905505821890555,-115.0,1.0,9,63.20831298828125,1561096000,5
Agc,1725970957999,52505000000,,,-1410006123494728572,0.0,4.0905505821890555,-115.0,1.0,9,40.46498489379883,1575420000,5
Agc,1725970957999,52505000000,,,-1410006123494728572,0.0,4.0905505821890555,-115.0,1.0,9,30.15526580810547,1176450000,5
Agc,1725970958999,53505000000,,,-1410006123494728687,0.0,4.0777060346752245,-114.0,1.0,9,41.02555847167969,1575420000,1
Agc,1725970958999,53505000000,,,-1410006123494728687,0.0,4.0777060346752245,-114.0,1.0,9,28.30018424987793,1176450000,1
Agc,1725970958999,53505000000,,,-1410006123494728687,0.0,4.0777060346752245,-114.0,1.0,9,61.720664978027344,1602000000,3
Agc,1725970958999,53505000000,,,-1410006123494728687,0.0,4.0777060346752245,-114.0,1.0,9,41.02555847167969,1575420000,6
Agc,1725970958999,53505000000,,,-1410006123494728687,0.0,4.0777060346752245,-114.0,1.0,9,28.30018424987793,1176450000,6
Agc,1725970958999,53505000000,,,-1410006123494728687,0.0,4.0777060346752245,-114.0,1.0,9,62.27527618408203,1561096000,5
Agc,1725970958999,53505000000,,,-1410006123494728687,0.0,4.0777060346752245,-114.0,1.0,9,41.02555847167969,1575420000,5
Agc,1725970958999,53505000000,,,-1410006123494728687,0.0,4.0777060346752245,-114.0,1.0,9,28.30018424987793,1176450000,5
Agc,1725970959999,54505000000,,,-1410006123494728803,0.0,4.034769728828884,-113.0,1.0,9,39.95390319824219,1575420000,1
Agc,1725970959999,54505000000,,,-1410006123494728803,0.0,4.034769728828884,-113.0,1.0,9,28.13314437866211,1176450000,1
Agc,1725970959999,54505000000,,,-1410006123494728803,0.0,4.034769728828884,-113.0,1.0,9,60.15611267089844,1602000000,3
Agc,1725970959999,54505000000,,,-1410006123494728803,0.0,4.034769728828884,-113.0,1.0,9,39.95390319824219,1575420000,6
Agc,1725970959999,54505000000,,,-1410006123494728803,0.0,4.034769728828884,-113.0,1.0,9,28.13314437866211,1176450000,6
Agc,1725970959999,54505000000,,,-1410006123494728803,0.0,4.034769728828884,-113.0,1.0,9,64.12346649169922,1561096000,5
Agc,1725970959999,54505000000,,,-1410006123494728803,0.0,4.034769728828884,-113.0,1.0,9,39.95390319824219,1575420000,5
Agc,1725970959999,54505000000,,,-1410006123494728803,0.0,4.034769728828884,-113.0,1.0,9,28.13314437866211,1176450000,5
Agc,1725970960999,55505000000,,,-1410006123494728919,0.0,4.013476934875857,-114.0,1.0,9,40.127628326416016,1575420000,1
Agc,1725970960999,55505000000,,,-1410006123494728919,0.0,4.013476934875857,-114.0,1.0,9,27.430871963500977,1176450000,1
Agc,1725970960999,55505000000,,,-1410006123494728919,0.0,4.013476934875857,-114.0,1.0,9,18.456707000732422,1602000000,3
Agc,1725970960999,55505000000,,,-1410006123494728919,0.0,4.013476934875857,-114.0,1.0,9,40.127628326416016,1575420000,6
Agc,1725970960999,55505000000,,,-1410006123494728919,0.0,4.013476934875857,-114.0,1.0,9,27.430871963500977,1176450000,6
Agc,1725970960999,55505000000,,,-1410006123494728919,0.0,4.013476934875857,-114.0,1.0,9,63.20831298828125,1561096000,5
Agc,1725970960999,55505000000,,,-1410006123494728919,0.0,4.013476934875857,-114.0,1.0,9,40.127628326416016,1575420000,5
Agc,1725970960999,55505000000,,,-1410006123494728919,0.0,4.013476934875857,-114.0,1.0,9,27.430871963500977,1176450000,5
Agc,1725970961999,56505000000,,,-1410006123494729036,0.0,3.996145026867519,-115.0,1.0,9,39.02899932861328,1575420000,1
Agc,1725970961999,56505000000,,,-1410006123494729036,0.0,3.996145026867519,-115.0,1.0,9,27.430871963500977,1176450000,1
Agc,1725970961999,56505000000,,,-1410006123494729036,0.0,3.996145026867519,-115.0,1.0,9,18.456707000732422,1602000000,3
Agc,1725970961999,56505000000,,,-1410006123494729036,0.0,3.996145026867519,-115.0,1.0,9,39.02899932861328,1575420000,6
Agc,1725970961999,56505000000,,,-1410006123494729036,0.0,3.996145026867519,-115.0,1.0,9,27.430871963500977,1176450000,6
Agc,1725970961999,56505000000,,,-1410006123494729036,0.0,3.996145026867519,-115.0,1.0,9,63.90355682373047,1561096000,5
Agc,1725970961999,56505000000,,,-1410006123494729036,0.0,3.996145026867519,-115.0,1.0,9,39.02899932861328,1575420000,5
Agc,1725970961999,56505000000,,,-1410006123494729036,0.0,3.996145026867519,-115.0,1.0,9,27.430871963500977,1176450000,5
Agc,1725970962999,57505000000,,,-1410006123494729153,0.0,3.9689691581678166,-116.0,1.0,9,38.62957763671875,1575420000,1
Agc,1725970962999,57505000000,,,-1410006123494729153,0.0,3.9689691581678166,-116.0,1.0,9,28.860759735107422,1176450000,1
Agc,1725970962999,57505000000,,,-1410006123494729153,0.0,3.9689691581678166,-116.0,1.0,9,58.10286331176758,1602000000,3
Agc,1725970962999,57505000000,,,-1410006123494729153,0.0,3.9689691581678166,-116.0,1.0,9,38.62957763671875,1575420000,6
Agc,1725970962999,57505000000,,,-1410006123494729153,0.0,3.9689691581678166,-116.0,1.0,9,28.860759735107422,1176450000,6
Agc,1725970962999,57505000000,,,-1410006123494729153,0.0,3.9689691581678166,-116.0,1.0,9,60.49237823486328,1561096000,5
Agc,1725970962999,57505000000,,,-1410006123494729153,0.0,3.9689691581678166,-116.0,1.0,9,38.62957763671875,1575420000,5
Agc,1725970962999,57505000000,,,-1410006123494729153,0.0,3.9689691581678166,-116.0,1.0,9,28.860759735107422,1176450000,5
Agc,1725970963999,58505000000,,,-1410006123494729269,0.0,3.938132621261429,-114.0,1.0,9,36.94316101074219,1575420000,1
Agc,1725970963999,58505000000,,,-1410006123494729269,0.0,3.938132621261429,-114.0,1.0,9,23.464778900146484,1176450000,1
Agc,1725970963999,58505000000,,,-1410006123494729269,0.0,3.938132621261429,-114.0,1.0,9,60.70954132080078,1602000000,3
Agc,1725970963999,58505000000,,,-1410006123494729269,0.0,3.938132621261429,-114.0,1.0,9,36.94316101074219,1575420000,6
Agc,1725970963999,58505000000,,,-1410006123494729269,0.0,3.938132621261429,-114.0,1.0,9,23.464778900146484,1176450000,6
Agc,1725970963999,58505000000,,,-1410006123494729269,0.0,3.938132621261429,-114.0,1.0,9,61.81559371948242,1561096000,5
Agc,1725970963999,58505000000,,,-1410006123494729269,0.0,3.938132621261429,-114.0,1.0,9,36.94316101074219,1575420000,5
Agc,1725970963999,58505000000,,,-1410006123494729269,0.0,3.938132621261429,-114.0,1.0,9,23.464778900146484,1176450000,5
Agc,1725970964999,59505000000,,,-1410006123494729384,0.0,3.9237305202644794,-113.0,1.0,9,37.657474517822266,1575420000,1
Agc,1725970964999,59505000000,,,-1410006123494729384,0.0,3.9237305202644794,-113.0,1.0,9,27.020599365234375,1176450000,1
Agc,1725970964999,59505000000,,,-1410006123494729384,0.0,3.9237305202644794,-113.0,1.0,9,60.70954132080078,1602000000,3
Agc,1725970964999,59505000000,,,-1410006123494729384,0.0,3.9237305202644794,-113.0,1.0,9,37.657474517822266,1575420000,6
Agc,1725970964999,59505000000,,,-1410006123494729384,0.0,3.9237305202644794,-113.0,1.0,9,27.020599365234375,1176450000,6
Agc,1725970964999,59505000000,,,-1410006123494729384,0.0,3.9237305202644794,-113.0,1.0,9,60.92140197753906,1561096000,5
Agc,1725970964999,59505000000,,,-1410006123494729384,0.0,3.9237305202644794,-113.0,1.0,9,37.657474517822266,1575420000,5
Agc,1725970964999,59505000000,,,-1410006123494729384,0.0,3.9237305202644794,-113.0,1.0,9,27.020599365234375,1176450000,5
Agc,1725970965999,60505000000,,,-1410006123494729500,0.0,3.9175265505316204,-114.0,1.0,9,38.62957763671875,1575420000,1
Agc,1725970965999,60505000000,,,-1410006123494729500,0.0,3.9175265505316204,-114.0,1.0,9,26.67449951171875,1176450000,1
Agc,1725970965999,60505000000,,,-1410006123494729500,0.0,3.9175265505316204,-114.0,1.0,9,57.503597259521484,1602000000,3
Agc,1725970965999,60505000000,,,-1410006123494729500,0.0,3.9175265505316204,-114.0,1.0,9,38.62957763671875,1575420000,6
Agc,1725970965999,60505000000,,,-1410006123494729500,0.0,3.9175265505316204,-114.0,1.0,9,26.67449951171875,1176450000,6
Agc,1725970965999,60505000000,,,-1410006123494729500,0.0,3.9175265505316204,-114.0,1.0,9,61.52764129638672,1561096000,5
Agc,1725970965999,60505000000,,,-1410006123494729500,0.0,3.9175265505316204,-114.0,1.0,9,38.62957763671875,1575420000,5
Agc,1725970965999,60505000000,,,-1410006123494729500,0.0,3.9175265505316204,-114.0,1.0,9,26.67449951171875,1176450000,5
Agc,1725970966999,61505000000,,,-1410006123494729617,0.0,3.9240192064602275,-115.0,1.0,9,41.83930206298828,1575420000,1
Agc,1725970966999,61505000000,,,-1410006123494729617,0.0,3.9240192064602275,-115.0,1.0,9,27.78910255432129,1176450000,1
Agc,1725970966999,61505000000,,,-1410006123494729617,0.0,3.9240192064602275,-115.0,1.0,9,58.45743942260742,1602000000,3
Agc,1725970966999,61505000000,,,-1410006123494729617,0.0,3.9240192064602275,-115.0,1.0,9,41.83930206298828,1575420000,6
Agc,1725970966999,61505000000,,,-1410006123494729617,0.0,3.9240192064602275,-115.0,1.0,9,27.78910255432129,1176450000,6
Agc,1725970966999,61505000000,,,-1410006123494729617,0.0,3.9240192064602275,-115.0,1.0,9,62.62626647949219,1561096000,5
Agc,1725970966999,61505000000,,,-1410006123494729617,0.0,3.9240192064602275,-115.0,1.0,9,41.83930206298828,1575420000,5
Agc,1725970966999,61505000000,,,-1410006123494729617,0.0,3.9240192064602275,-115.0,1.0,9,27.78910255432129,1176450000,5
Agc,1725970967999,62505000000,,,-1410006123494729734,0.0,3.9065930579169126,-116.0,1.0,9,39.595672607421875,1575420000,1
Agc,1725970967999,62505000000,,,-1410006123494729734,0.0,3.9065930579169126,-116.0,1.0,9,27.962825775146484,1176450000,1
Agc,1725970967999,62505000000,,,-1410006123494729734,0.0,3.9065930579169126,-116.0,1.0,9,62.79658126831055,1602000000,3
Agc,1725970967999,62505000000,,,-1410006123494729734,0.0,3.9065930579169126,-116.0,1.0,9,39.595672607421875,1575420000,6
Agc,1725970967999,62505000000,,,-1410006123494729734,0.0,3.9065930579169126,-116.0,1.0,9,27.962825775146484,1176450000,6
Agc,1725970967999,62505000000,,,-1410006123494729734,0.0,3.9065930579169126,-116.0,1.0,9,61.33022689819336,1561096000,5
Agc,1725970967999,62505000000,,,-1410006123494729734,0.0,3.9065930579169126,-116.0,1.0,9,39.595672607421875,1575420000,5
Agc,1725970967999,62505000000,,,-1410006123494729734,0.0,3.9065930579169126,-116.0,1.0,9,27.962825775146484,1176450000,5
Agc,1725970968999,63505000000,,,-1410006123494729851,0.0,3.8911065943086625,-115.0,1.0,9,38.210899353027344,1575420000,1
Agc,1725970968999,63505000000,,,-1410006123494729851,0.0,3.8911065943086625,-115.0,1.0,9,28.544872283935547,1176450000,1
Agc,1725970968999,63505000000,,,-1410006123494729851,0.0,3.8911065943086625,-115.0,1.0,9,62.09431457519531,1602000000,3
Agc,1725970968999,63505000000,,,-1410006123494729851,0.0,3.8911065943086625,-115.0,1.0,9,38.210899353027344,1575420000,6
Agc,1725970968999,63505000000,,,-1410006123494729851,0.0,3.8911065943086625,-115.0,1.0,9,28.544872283935547,1176450000,6
Agc,1725970968999,63505000000,,,-1410006123494729851,0.0,3.8911065943086625,-115.0,1.0,9,62.963626861572266,1561096000,5
Agc,1725970968999,63505000000,,,-1410006123494729851,0.0,3.8911065943086625,-115.0,1.0,9,38.210899353027344,1575420000,5
Agc,1725970968999,63505000000,,,-1410006123494729851,0.0,3.8911065943086625,-115.0,1.0,9,28.544872283935547,1176450000,5
Agc,1725970969999,64505000000,,,-1410006123494729966,0.0,3.8914549264126217,-114.0,1.0,9,39.22203063964844,1575420000,1
Agc,1725970969999,64505000000,,,-1410006123494729966,0.0,3.8914549264126217,-114.0,1.0,9,25.860759735107422,1176450000,1
Agc,1725970969999,64505000000,,,-1410006123494729966,0.0,3.8914549264126217,-114.0,1.0,9,56.60566711425781,1602000000,3
Agc,1725970969999,64505000000,,,-1410006123494729966,0.0,3.8914549264126217,-114.0,1.0,9,39.22203063964844,1575420000,6
Agc,1725970969999,64505000000,,,-1410006123494729966,0.0,3.8914549264126217,-114.0,1.0,9,25.860759735107422,1176450000,6
Agc,1725970969999,64505000000,,,-1410006123494729966,0.0,3.8914549264126217,-114.0,1.0,9,62.452545166015625,1561096000,5
Agc,1725970969999,64505000000,,,-1410006123494729966,0.0,3.8914549264126217,-114.0,1.0,9,39.22203063964844,1575420000,5
Agc,1725970969999,64505000000,,,-1410006123494729966,0.0,3.8914549264126217,-114.0,1.0,9,25.860759735107422,1176450000,5
Agc,1725970970999,65505000000,,,-1410006123494730082,0.0,3.9078193777897576,-114.0,1.0,9,38.42276382446289,1575420000,1
Agc,1725970970999,65505000000,,,-1410006123494730082,0.0,3.9078193777897576,-114.0,1.0,9,22.828941345214844,1176450000,1
Agc,1725970970999,65505000000,,,-1410006123494730082,0.0,3.9078193777897576,-114.0,1.0,9,59.441802978515625,1602000000,3
Agc,1725970970999,65505000000,,,-1410006123494730082,0.0,3.9078193777897576,-114.0,1.0,9,38.42276382446289,1575420000,6
Agc,1725970970999,65505000000,,,-1410006123494730082,0.0,3.9078193777897576,-114.0,1.0,9,22.828941345214844,1176450000,6
Agc,1725970970999,65505000000,,,-1410006123494730082,0.0,3.9078193777897576,-114.0,1.0,9,58.66344451904297,1561096000,5
Agc,1725970970999,65505000000,,,-1410006123494730082,0.0,3.9078193777897576,-114.0,1.0,9,38.42276382446289,1575420000,5
Agc,1725970970999,65505000000,,,-1410006123494730082,0.0,3.9078193777897576,-114.0,1.0,9,22.828941345214844,1176450000,5
Agc,1725970971999,66505000000,,,-1410006123494730200,0.0,3.8749568682010915,-114.0,1.0,9,39.776634216308594,1575420000,1
Agc,1725970971999,66505000000,,,-1410006123494730200,0.0,3.8749568682010915,-114.0,1.0,9,26.090354919433594,1176450000,1
