% program   : RTKLIB ver.2.4.3
% inp file  : gnss_log_2024_09_10_14_21_50.24o
% inp file  : ../nav/BRD400DLR_S_20242540000_01D_MN.rnx
% obs start : 2024/09/10 12:22:09.6 GPST (week2331 217329.6s)
% obs end   : 2024/09/10 12:44:57.0 GPST (week2331 218697.0s)
% pos mode  : Single
% elev mask : 15.0 deg
% ionos opt : Broadcast
% tropo opt : Saastamoinen
% ephemeris : Broadcast
% navi sys  : GPS Galileo SBAS
%
% (lat/lon/height=WGS84/ellipsoidal,Q=1:fix,2:float,3:sbas,4:dgps,5:single,6:ppp,ns=# of satellites)
%  GPST                  latitude(deg) longitude(deg)  height(m)   Q  ns   sdn(m)   sde(m)   sdu(m)  sdne(m)  sdeu(m)  sdun(m) age(s)  ratio
2024/09/10 12:22:09.600   69.212355629   15.858570977    59.9833   5  13   2.3585   1.9930   6.1051  -0.4561  -1.6353   1.2946   0.00    0.0
2024/09/10 12:22:10.600   69.212319905   15.858632589    56.3828   5  16   2.1424   1.7419   5.4180  -0.8410  -1.3061   1.7053   0.00    0.0
2024/09/10 12:22:11.000   69.212341293   15.858667089    47.9816   5  16   2.1424   1.7419   5.4180  -0.8410  -1.3061   1.7053   0.00    0.0
2024/09/10 12:22:12.000   69.212358564   15.858633874    54.0080   5  16   2.1424   1.7418   5.4181  -0.8410  -1.3060   1.7053   0.00    0.0
2024/09/10 12:22:13.000   69.212328355   15.858610492    51.8015   5  17   2.0309   1.7241   5.3055  -0.7335  -1.4065   1.9127   0.00    0.0
2024/09/10 12:22:14.000   69.212338374   15.858655843    51.6646   5  16   2.1425   1.7418   5.4184  -0.8410  -1.3058   1.7054   0.00    0.0
2024/09/10 12:22:15.000   69.212339824   15.858654621    53.2038   5  16   2.1425   1.7417   5.4185  -0.8410  -1.3058   1.7055   0.00    0.0
2024/09/10 12:22:16.000   69.212353123   15.858636097    51.8800   5  16   2.1425   1.7417   5.4186  -0.8410  -1.3057   1.7055   0.00    0.0
2024/09/10 12:22:17.000   69.212356912   15.858619427    50.5396   5  16   2.1425   1.7417   5.4187  -0.8410  -1.3056   1.7055   0.00    0.0
2024/09/10 12:22:18.000   69.212344970   15.858620625    53.1209   5  16   2.1426   1.7417   5.4188  -0.8410  -1.3056   1.7056   0.00    0.0
2024/09/10 12:22:19.000   69.212339140   15.858615496    56.2081   5  16   2.1426   1.7416   5.4190  -0.8410  -1.3055   1.7056   0.00    0.0
2024/09/10 12:22:20.000   69.212336320   15.858619929    52.9766   5  16   2.1426   1.7416   5.4191  -0.8410  -1.3054   1.7056   0.00    0.0
2024/09/10 12:22:21.000   69.212339262   15.858656688    54.3481   5  16   2.1427   1.7416   5.4192  -0.8410  -1.3053   1.7057   0.00    0.0
2024/09/10 12:22:22.000   69.212343432   15.858616825    54.2314   5  16   2.1427   1.7415   5.4193  -0.8410  -1.3053   1.7057   0.00    0.0
2024/09/10 12:22:23.000   69.212333806   15.858626576    53.9715   5  16   2.1427   1.7415   5.4194  -0.8410  -1.3052   1.7057   0.00    0.0
2024/09/10 12:22:24.000   69.212351900   15.858591857    53.5171   5  16   2.1427   1.7415   5.4195  -0.8411  -1.3051   1.7058   0.00    0.0
2024/09/10 12:22:25.000   69.212352831   15.858644642    49.8643   5  16   2.1428   1.7414   5.4196  -0.8411  -1.3050   1.7058   0.00    0.0
2024/09/10 12:22:26.000   69.212352193   15.858654545    51.4932   5  16   2.1428   1.7414   5.4198  -0.8411  -1.3050   1.7058   0.00    0.0
2024/09/10 12:22:27.000   69.212347841   15.858625788    53.5465   5  16   2.1428   1.7414   5.4199  -0.8411  -1.3049   1.7059   0.00    0.0
2024/09/10 12:22:28.000   69.212349990   15.858628682    54.2325   5  16   2.1428   1.7413   5.4200  -0.8411  -1.3048   1.7059   0.00    0.0
2024/09/10 12:22:29.000   69.212341082   15.858673683    58.0433   5  16   2.1429   1.7413   5.4201  -0.8411  -1.3047   1.7060   0.00    0.0
2024/09/10 12:22:30.000   69.212354343   15.858637046    53.2161   5  16   2.1429   1.7413   5.4202  -0.8411  -1.3047   1.7060   0.00    0.0
2024/09/10 12:22:31.000   69.212345531   15.858694924    52.7355   5  16   2.1429   1.7412   5.4203  -0.8411  -1.3046   1.7060   0.00    0.0
2024/09/10 12:22:32.000   69.212340019   15.858654501    53.9977   5  16   2.1430   1.7412   5.4204  -0.8411  -1.3045   1.7061   0.00    0.0
2024/09/10 12:22:33.000   69.212335492   15.858637226    53.7123   5  16   2.1430   1.7412   5.4205  -0.8411  -1.3044   1.7061   0.00    0.0
2024/09/10 12:22:34.000   69.212349246   15.858673876    48.8821   5  16   2.1430   1.7411   5.4206  -0.8411  -1.3044   1.7061   0.00    0.0
2024/09/10 12:22:35.000   69.212365974   15.858646410    50.3742   5  16   2.1430   1.7411   5.4208  -0.8411  -1.3043   1.7062   0.00    0.0
2024/09/10 12:22:36.000   69.212373133   15.858691457    50.2911   5  16   2.1431   1.7411   5.4209  -0.8411  -1.3042   1.7062   0.00    0.0
2024/09/10 12:22:37.000   69.212352838   15.858600823    50.6948   5  16   2.1431   1.7410   5.4210  -0.8411  -1.3041   1.7062   0.00    0.0
2024/09/10 12:22:38.000   69.212359511   15.858618644    52.3671   5  16   2.1431   1.7410   5.4211  -0.8411  -1.3040   1.7063   0.00    0.0
2024/09/10 12:22:39.000   69.212343379   15.858618051    55.2115   5  16   2.1432   1.7410   5.4212  -0.8411  -1.3040   1.7063   0.00    0.0
2024/09/10 12:22:40.000   69.212344238   15.858654535    51.0764   5  16   2.1432   1.7409   5.4213  -0.8411  -1.3039   1.7064   0.00    0.0
2024/09/10 12:22:41.000   69.212349546   15.858611491    48.4482   5  16   2.1432   1.7409   5.4214  -0.8411  -1.3038   1.7064   0.00    0.0
2024/09/10 12:22:42.000   69.212348980   15.858636272    50.9027   5  16   2.1432   1.7409   5.4215  -0.8411  -1.3037   1.7064   0.00    0.0
2024/09/10 12:22:43.000   69.212346985   15.858603348    55.4238   5  16   2.1433   1.7408   5.4216  -0.8411  -1.3037   1.7065   0.00    0.0
2024/09/10 12:22:44.000   69.212350305   15.858658497    52.3299   5  16   2.1433   1.7408   5.4217  -0.8411  -1.3036   1.7065   0.00    0.0
2024/09/10 12:22:45.000   69.212348539   15.858618180    53.2879   5  16   2.1433   1.7408   5.4218  -0.8411  -1.3035   1.7065   0.00    0.0
2024/09/10 12:22:46.000   69.212339814   15.858674519    52.8893   5  16   2.1434   1.7407   5.4219  -0.8411  -1.3034   1.7066   0.00    0.0
2024/09/10 12:22:47.000   69.212327011   15.858691910    55.8272   5  15   2.5323   1.7664   5.6343  -1.0584  -1.5132   2.2968   0.00    0.0
2024/09/10 12:22:48.000   69.212376962   15.858636132    51.4701   5  15   2.4086   1.7761   5.5056  -1.0466  -1.1668   1.3650   0.00    0.0
2024/09/10 12:22:49.000   69.212384708   15.858621530    49.2219   5  15   2.4086   1.7761   5.5057  -1.0466  -1.1666   1.3651   0.00    0.0
2024/09/10 12:22:50.000   69.212379840   15.858628963    52.1882   5  15   2.4086   1.7761   5.5058  -1.0467  -1.1665   1.3651   0.00    0.0
2024/09/10 12:22:51.000   69.212378982   15.858586572    55.1072   5  15   2.5319   1.7662   5.6338  -1.0581  -1.5122   2.2952   0.00    0.0
2024/09/10 12:22:52.000   69.212337930   15.858668072    53.0795   5  15   2.4984   1.7661   5.6707  -1.0450  -1.4815   2.2456   0.00    0.0
2024/09/10 12:22:53.000   69.212334985   15.858659357    50.7465   5  15   2.4984   1.7661   5.6705  -1.0449  -1.4813   2.2453   0.00    0.0
2024/09/10 12:22:54.000   69.212338291   15.858659647    58.2452   5  16   2.1436   1.7405   5.4228  -0.8411  -1.3028   1.7069   0.00    0.0
2024/09/10 12:22:55.000   69.212395679   15.858578142    52.3377   5  15   2.4088   1.7760   5.5063  -1.0470  -1.1658   1.3654   0.00    0.0
2024/09/10 12:22:56.000   69.212394551   15.858572970    52.4780   5  15   2.4088   1.7760   5.5064  -1.0471  -1.1657   1.3654   0.00    0.0
2024/09/10 12:22:57.000   69.212385912   15.858593876    51.1885   5  15   2.4088   1.7760   5.5065  -1.0471  -1.1656   1.3655   0.00    0.0
2024/09/10 12:22:58.000   69.212394700   15.858569092    51.6314   5  15   2.4088   1.7760   5.5067  -1.0472  -1.1654   1.3655   0.00    0.0
2024/09/10 12:22:59.000   69.212364910   15.858587955    56.6841   5  15   2.5311   1.7659   5.6327  -1.0575  -1.5101   2.2921   0.00    0.0
2024/09/10 12:23:00.000   69.212365592   15.858586007    54.9033   5  15   2.5310   1.7659   5.6326  -1.0574  -1.5098   2.2917   0.00    0.0
2024/09/10 12:23:01.000   69.212349117   15.858597201    56.8376   5  15   2.4980   1.7657   5.6689  -1.0444  -1.4796   2.2427   0.00    0.0
2024/09/10 12:23:02.000   69.212360190   15.858600495    52.2334   5  15   2.4980   1.7657   5.6687  -1.0444  -1.4793   2.2424   0.00    0.0
2024/09/10 12:23:03.000   69.212369037   15.858646805    52.9696   5  16   2.1439   1.7402   5.4237  -0.8411  -1.3021   1.7072   0.00    0.0
2024/09/10 12:23:04.000   69.212361892   15.858638958    49.1767   5  15   2.5306   1.7657   5.6320  -1.0571  -1.5088   2.2901   0.00    0.0
2024/09/10 12:23:05.000   69.212364775   15.858646969    49.8836   5  15   2.5305   1.7656   5.6319  -1.0570  -1.5086   2.2897   0.00    0.0
2024/09/10 12:23:06.000   69.212390864   15.858596139    51.3855   5  16   2.1439   1.7401   5.4240  -0.8411  -1.3019   1.7073   0.00    0.0
2024/09/10 12:23:07.000   69.212343578   15.858649374    50.6875   5  16   2.1440   1.7400   5.4241  -0.8412  -1.3018   1.7074   0.00    0.0
2024/09/10 12:23:08.000   69.212348254   15.858636676    52.0799   5  16   2.1440   1.7400   5.4242  -0.8412  -1.3017   1.7074   0.00    0.0
2024/09/10 12:23:09.000   69.212332803   15.858655668    54.2147   5  16   2.1440   1.7400   5.4243  -0.8412  -1.3016   1.7074   0.00    0.0
2024/09/10 12:23:10.000   69.212368445   15.858618310    55.5657   5  16   2.1441   1.7399   5.4244  -0.8412  -1.3015   1.7075   0.00    0.0
2024/09/10 12:23:11.000   69.212379210   15.858650826    47.0367   5  14   2.7929   1.8082   5.7197  -1.2565  -1.3707   2.0112   0.00    0.0
2024/09/10 12:23:12.000   69.212356117   15.858672067    51.2709   5  16   2.1441   1.7399   5.4246  -0.8412  -1.3014   1.7076   0.00    0.0
2024/09/10 12:23:13.000   69.212373989   15.858659373    49.3929   5  16   2.1442   1.7398   5.4247  -0.8412  -1.3013   1.7076   0.00    0.0
2024/09/10 12:23:14.000   69.212374347   15.858653833    54.2097   5  16   2.1442   1.7398   5.4248  -0.8412  -1.3012   1.7076   0.00    0.0
2024/09/10 12:23:15.000   69.212376658   15.858617794    52.7788   5  16   2.2129   1.7435   5.3554  -0.8816  -1.3371   1.7592   0.00    0.0
2024/09/10 12:23:16.000   69.212381179   15.858669898    51.1683   5  16   2.1443   1.7397   5.4250  -0.8412  -1.3011   1.7077   0.00    0.0
2024/09/10 12:23:17.000   69.212364062   15.858686146    45.5530   5  16   2.1443   1.7397   5.4251  -0.8412  -1.3010   1.7078   0.00    0.0
2024/09/10 12:23:18.000   69.212383112   15.858620231    48.6594   5  16   2.1443   1.7397   5.4251  -0.8412  -1.3009   1.7078   0.00    0.0
2024/09/10 12:23:19.000   69.212384549   15.858623789    52.4457   5  16   2.1443   1.7396   5.4252  -0.8412  -1.3008   1.7078   0.00    0.0
2024/09/10 12:23:20.000   69.212368662   15.858611564    48.6398   5  16   2.2129   1.7433   5.3564  -0.8816  -1.3365   1.7590   0.00    0.0
2024/09/10 12:23:21.000   69.212357301   15.858617296    43.9667   5  16   2.2129   1.7433   5.3566  -0.8816  -1.3363   1.7589   0.00    0.0
2024/09/10 12:23:22.000   69.212358324   15.858609973    53.0224   5  16   2.2129   1.7433   5.3567  -0.8817  -1.3362   1.7589   0.00    0.0
2024/09/10 12:23:23.000   69.212323821   15.858694808    51.1860   5  16   2.1445   1.7395   5.4256  -0.8412  -1.3005   1.7080   0.00    0.0
2024/09/10 12:23:24.000   69.212357019   15.858668076    48.3228   5  16   2.1445   1.7395   5.4257  -0.8412  -1.3004   1.7080   0.00    0.0
2024/09/10 12:23:25.000   69.212369908   15.858627380    44.4526   5  15   2.4096   1.7757   5.5092  -1.0488  -1.1617   1.3668   0.00    0.0
2024/09/10 12:23:26.000   69.212387515   15.858607962    44.7650   5  15   2.4096   1.7757   5.5093  -1.0489  -1.1616   1.3668   0.00    0.0
2024/09/10 12:23:27.000   69.212382777   15.858635592    52.2076   5  15   2.4096   1.7757   5.5094  -1.0490  -1.1615   1.3669   0.00    0.0
2024/09/10 12:23:28.000   69.212374402   15.858634942    52.0058   5  15   2.4097   1.7757   5.5095  -1.0490  -1.1613   1.3669   0.00    0.0
2024/09/10 12:23:29.000   69.212372969   15.858663821    45.5447   5  15   2.4097   1.7757   5.5096  -1.0491  -1.1612   1.3670   0.00    0.0
2024/09/10 12:23:30.000   69.212365853   15.858631067    55.3259   5  15   2.4097   1.7757   5.5097  -1.0491  -1.1610   1.3670   0.00    0.0
2024/09/10 12:23:31.000   69.212388939   15.858618465    51.0846   5  15   2.4097   1.7757   5.5098  -1.0492  -1.1609   1.3671   0.00    0.0
2024/09/10 12:23:32.000   69.212367997   15.858611943    51.9671   5  15   2.4098   1.7757   5.5098  -1.0493  -1.1608   1.3671   0.00    0.0
2024/09/10 12:23:33.000   69.212387782   15.858553957    41.1946   5  15   2.4098   1.7757   5.5099  -1.0493  -1.1606   1.3672   0.00    0.0
2024/09/10 12:23:34.000   69.212384727   15.858590272    48.8136   5  15   2.4098   1.7756   5.5100  -1.0494  -1.1605   1.3672   0.00    0.0
2024/09/10 12:23:35.000   69.212373977   15.858597602    51.0216   5  15   2.4099   1.7756   5.5101  -1.0494  -1.1604   1.3673   0.00    0.0
2024/09/10 12:23:36.000   69.212361084   15.858579747    48.9906   5  13   3.0648   2.0853   5.7535  -1.7009  -1.5974   2.2018   0.00    0.0
2024/09/10 12:23:37.000   69.212369821   15.858590699    48.9833   5  14   2.7920   1.8076   5.7147  -1.2566  -1.3634   2.0013   0.00    0.0
2024/09/10 12:23:38.000   69.212387585   15.858477820    46.8827   5  15   2.4964   1.7641   5.6611  -1.0422  -1.4715   2.2310   0.00    0.0
2024/09/10 12:23:39.000   69.212352459   15.858493833    49.2234   5  16   2.1450   1.7390   5.4271  -0.8412  -1.2991   1.7086   0.00    0.0
2024/09/10 12:23:40.000   69.212357744   15.858415937    53.2770   5  15   2.2482   1.9194   5.4932  -1.1201  -1.5419   1.8685   0.00    0.0
2024/09/10 12:23:41.000   69.212390425   15.858333398    50.8600   5  15   2.4100   1.7756   5.5106  -1.0498  -1.1595   1.3676   0.00    0.0
2024/09/10 12:23:42.000   69.212398973   15.858313826    48.2845   5  15   2.4101   1.7756   5.5107  -1.0499  -1.1594   1.3676   0.00    0.0
2024/09/10 12:23:43.000   69.212378429   15.858251210    50.8591   5  14   2.6155   1.7954   5.6680  -0.9121  -1.3025   0.7236   0.00    0.0
2024/09/10 12:23:44.000   69.212426656   15.858227939    48.9436   5  14   2.6156   1.7954   5.6681  -0.9123  -1.3023   0.7235   0.00    0.0
2024/09/10 12:23:45.000   69.212461045   15.858210487    50.0772   5  14   2.6157   1.7953   5.6682  -0.9124  -1.3021   0.7234   0.00    0.0
2024/09/10 12:23:46.000   69.212471562   15.858198969    50.5455   5  13   2.6281   1.8468   5.9280  -0.9710  -0.9714   0.2859   0.00    0.0
2024/09/10 12:23:47.000   69.212585061   15.858202063    40.1633   5  13   2.6106   1.8692   5.8779  -0.3797  -1.4089   0.6058   0.00    0.0
2024/09/10 12:23:48.000   69.212639378   15.858244986    42.6797   5  13   2.6107   1.8692   5.8782  -0.3800  -1.4087   0.6050   0.00    0.0
2024/09/10 12:23:49.000   69.212685371   15.858141260    41.4173   5  14   2.2486   1.8647   5.6968   0.1627  -1.4733   1.5127   0.00    0.0
2024/09/10 12:23:50.000   69.212800426   15.858105706    31.2807   5  14   2.2486   1.8646   5.6970   0.1627  -1.4732   1.5126   0.00    0.0
2024/09/10 12:23:51.000   69.212889339   15.858075062    41.4298   5  13   2.2742   2.0916   5.9865   0.5901  -1.9780   1.2896   0.00    0.0
2024/09/10 12:23:52.000   69.213036988   15.857992802    45.9646   5  13   2.2743   2.0915   5.9865   0.5902  -1.9777   1.2894   0.00    0.0
2024/09/10 12:23:53.000   69.213127041   15.857879087    51.4639   5  14   2.2488   1.8644   5.6975   0.1626  -1.4728   1.5121   0.00    0.0
2024/09/10 12:23:54.000   69.213249566   15.857739525    51.1529   5  13   2.3362   2.0224   5.7518  -0.6853  -1.6690   1.6685   0.00    0.0
2024/09/10 12:23:55.000   69.213395119   15.857655636    53.4470   5  13   2.3363   2.0223   5.7521  -0.6854  -1.6691   1.6685   0.00    0.0
2024/09/10 12:23:56.000   69.213498657   15.857574212    50.1465   5  13   2.3363   2.0223   5.7524  -0.6854  -1.6692   1.6685   0.00    0.0
2024/09/10 12:23:57.000   69.213603466   15.857523505    47.7968   5  13   2.3364   2.0222   5.7527  -0.6855  -1.6693   1.6685   0.00    0.0
2024/09/10 12:23:58.000   69.213711952   15.857443193    40.6959   5  14   2.3364   1.9559   5.6026  -0.6797  -1.8596   1.6745   0.00    0.0
2024/09/10 12:23:59.000   69.213829346   15.857403259    43.3270   5  14   2.3364   1.9558   5.6030  -0.6798  -1.8596   1.6745   0.00    0.0
2024/09/10 12:24:00.000   69.213972607   15.857331292    48.7241   5  14   2.3365   1.9557   5.6033  -0.6798  -1.8597   1.6746   0.00    0.0
2024/09/10 12:24:01.000   69.214112015   15.857253870    42.4819   5  15   2.1920   1.9137   5.4671  -0.8880  -1.7213   1.9491   0.00    0.0
2024/09/10 12:24:02.000   69.214229009   15.857207801    42.0572   5  15   2.1920   1.9136   5.4674  -0.8880  -1.7214   1.9492   0.00    0.0
2024/09/10 12:24:03.000   69.214336719   15.857130966    45.8442   5  15   2.1920   1.9136   5.4677  -0.8880  -1.7215   1.9493   0.00    0.0
2024/09/10 12:24:04.000   69.214455730   15.857077599    47.5740   5  15   2.1921   1.9135   5.4681  -0.8880  -1.7216   1.9494   0.00    0.0
2024/09/10 12:24:05.000   69.214557081   15.857012840    47.2153   5  15   2.1921   1.9135   5.4684  -0.8880  -1.7217   1.9494   0.00    0.0
2024/09/10 12:24:06.000   69.214664436   15.856981600    49.5324   5  15   2.1922   1.9134   5.4687  -0.8880  -1.7218   1.9495   0.00    0.0
2024/09/10 12:24:07.000   69.214775867   15.856877051    49.7604   5  15   2.1922   1.9134   5.4690  -0.8880  -1.7219   1.9496   0.00    0.0
2024/09/10 12:24:08.000   69.214879591   15.856830357    49.5605   5  15   2.1922   1.9134   5.4693  -0.8880  -1.7220   1.9497   0.00    0.0
2024/09/10 12:24:09.000   69.214996951   15.856813287    55.5773   5  15   2.1923   1.9133   5.4696  -0.8880  -1.7221   1.9498   0.00    0.0
2024/09/10 12:24:10.000   69.215097441   15.856723402    55.8183   5  15   2.1923   1.9133   5.4699  -0.8880  -1.7222   1.9498   0.00    0.0
2024/09/10 12:24:11.000   69.215190940   15.856699156    50.9810   5  15   2.1924   1.9132   5.4702  -0.8880  -1.7223   1.9499   0.00    0.0
2024/09/10 12:24:12.000   69.215302994   15.856588824    54.8470   5  15   2.1924   1.9132   5.4706  -0.8880  -1.7223   1.9500   0.00    0.0
2024/09/10 12:24:13.000   69.215400572   15.856562491    52.3284   5  15   2.1924   1.9131   5.4709  -0.8880  -1.7224   1.9501   0.00    0.0
2024/09/10 12:24:14.000   69.215483500   15.856501750    49.0043   5  15   2.1925   1.9131   5.4712  -0.8880  -1.7225   1.9501   0.00    0.0
2024/09/10 12:24:15.000   69.215578284   15.856449847    48.9996   5  15   2.1925   1.9130   5.4715  -0.8880  -1.7226   1.9502   0.00    0.0
2024/09/10 12:24:16.000   69.215690449   15.856387377    51.5875   5  15   2.1926   1.9130   5.4718  -0.8880  -1.7227   1.9503   0.00    0.0
2024/09/10 12:24:17.000   69.215769313   15.856322483    49.6079   5  15   2.1926   1.9130   5.4721  -0.8880  -1.7228   1.9504   0.00    0.0
2024/09/10 12:24:18.000   69.215864788   15.856314651    47.8510   5  15   2.1926   1.9129   5.4724  -0.8880  -1.7229   1.9505   0.00    0.0
2024/09/10 12:24:19.000   69.215978075   15.856263578    52.0186   5  15   2.1927   1.9129   5.4727  -0.8880  -1.7230   1.9505   0.00    0.0
2024/09/10 12:24:20.000   69.216058085   15.856210087    50.7590   5  15   2.1927   1.9128   5.4730  -0.8880  -1.7231   1.9506   0.00    0.0
2024/09/10 12:24:21.000   69.216168569   15.856171191    52.7039   5  15   2.1928   1.9128   5.4733  -0.8881  -1.7232   1.9507   0.00    0.0
2024/09/10 12:24:22.000   69.216273236   15.856054608    53.5020   5  15   2.1928   1.9127   5.4737  -0.8881  -1.7232   1.9508   0.00    0.0
2024/09/10 12:24:23.000   69.216380947   15.856048285    53.9633   5  15   2.1928   1.9127   5.4740  -0.8881  -1.7233   1.9509   0.00    0.0
2024/09/10 12:24:24.000   69.216450868   15.855995937    47.7411   5  15   2.1929   1.9126   5.4743  -0.8881  -1.7234   1.9509   0.00    0.0
2024/09/10 12:24:25.000   69.216555603   15.855987764    54.3792   5  15   2.1929   1.9126   5.4746  -0.8881  -1.7235   1.9510   0.00    0.0
2024/09/10 12:24:26.000   69.216666891   15.855976638    49.4426   5  15   2.1930   1.9126   5.4749  -0.8881  -1.7236   1.9511   0.00    0.0
2024/09/10 12:24:27.000   69.216778921   15.856007768    49.0474   5  15   2.1930   1.9125   5.4752  -0.8881  -1.7237   1.9512   0.00    0.0
2024/09/10 12:24:28.000   69.216892658   15.856110955    48.2989   5  15   2.1930   1.9125   5.4755  -0.8881  -1.7238   1.9513   0.00    0.0
2024/09/10 12:24:29.000   69.217021917   15.856231949    50.1314   5  15   2.1931   1.9124   5.4758  -0.8881  -1.7239   1.9513   0.00    0.0
2024/09/10 12:24:30.000   69.217114028   15.856331006    47.9843   5  15   2.1931   1.9124   5.4761  -0.8881  -1.7240   1.9514   0.00    0.0
2024/09/10 12:24:31.000   69.217218594   15.856449331    46.9874   5  15   2.1932   1.9123   5.4764  -0.8881  -1.7241   1.9515   0.00    0.0
2024/09/10 12:24:32.000   69.217311650   15.856595455    45.0528   5  15   2.1932   1.9123   5.4767  -0.8881  -1.7242   1.9516   0.00    0.0
2024/09/10 12:24:33.000   69.217398322   15.856689216    47.3349   5  15   2.1933   1.9123   5.4770  -0.8881  -1.7243   1.9517   0.00    0.0
2024/09/10 12:24:34.000   69.217475934   15.856729025    47.9768   5  15   2.1933   1.9122   5.4773  -0.8881  -1.7243   1.9517   0.00    0.0
2024/09/10 12:24:35.000   69.217534142   15.856803773    45.7355   5  15   2.1933   1.9122   5.4776  -0.8881  -1.7244   1.9518   0.00    0.0
2024/09/10 12:24:36.000   69.217597665   15.856915085    44.7590   5  15   2.1934   1.9121   5.4780  -0.8881  -1.7245   1.9519   0.00    0.0
2024/09/10 12:24:37.000   69.217632347   15.856944889    48.8210   5  15   2.1934   1.9121   5.4783  -0.8881  -1.7246   1.9520   0.00    0.0
2024/09/10 12:24:38.000   69.217651250   15.856929443    55.9416   5  15   2.1935   1.9120   5.4786  -0.8881  -1.7247   1.9521   0.00    0.0
2024/09/10 12:24:39.000   69.217708493   15.857024585    50.4489   5  15   2.1935   1.9120   5.4789  -0.8881  -1.7248   1.9522   0.00    0.0
2024/09/10 12:24:40.000   69.217752111   15.857123500    47.6150   5  15   2.1936   1.9120   5.4792  -0.8882  -1.7249   1.9523   0.00    0.0
2024/09/10 12:24:41.000   69.217811491   15.857186037    46.2557   5  15   2.1936   1.9119   5.4795  -0.8882  -1.7250   1.9523   0.00    0.0
2024/09/10 12:24:42.000   69.217876693   15.857226943    50.5340   5  15   2.1937   1.9119   5.4798  -0.8882  -1.7251   1.9524   0.00    0.0
2024/09/10 12:24:43.000   69.217928447   15.857279355    53.2242   5  15   2.1937   1.9118   5.4801  -0.8882  -1.7252   1.9525   0.00    0.0
2024/09/10 12:24:44.000   69.217980551   15.857354752    54.1536   5  15   2.1937   1.9118   5.4804  -0.8882  -1.7253   1.9526   0.00    0.0
2024/09/10 12:24:45.000   69.218028543   15.857439465    55.8694   5  15   2.1938   1.9117   5.4807  -0.8882  -1.7253   1.9527   0.00    0.0
2024/09/10 12:24:46.000   69.218077022   15.857492927    55.6850   5  15   2.1938   1.9117   5.4810  -0.8882  -1.7254   1.9528   0.00    0.0
2024/09/10 12:24:47.000   69.218128052   15.857562251    55.1576   5  15   2.1939   1.9116   5.4813  -0.8882  -1.7255   1.9529   0.00    0.0
2024/09/10 12:24:48.000   69.218189267   15.857639977    54.8952   5  15   2.1939   1.9116   5.4816  -0.8882  -1.7256   1.9529   0.00    0.0
2024/09/10 12:24:49.000   69.218233457   15.857728200    55.0835   5  15   2.1940   1.9116   5.4819  -0.8882  -1.7257   1.9530   0.00    0.0
2024/09/10 12:24:50.000   69.218281457   15.857841387    52.3550   5  15   2.1940   1.9115   5.4822  -0.8882  -1.7258   1.9531   0.00    0.0
2024/09/10 12:24:51.000   69.218321037   15.857885488    50.0454   5  15   2.1940   1.9115   5.4825  -0.8882  -1.7259   1.9532   0.00    0.0
2024/09/10 12:24:52.000   69.218405464   15.857994421    54.2931   5  15   2.1941   1.9114   5.4828  -0.8882  -1.7260   1.9533   0.00    0.0
2024/09/10 12:24:53.000   69.218438600   15.858080092    52.5519   5  15   2.1941   1.9114   5.4831  -0.8882  -1.7261   1.9534   0.00    0.0
2024/09/10 12:24:54.000   69.218486810   15.858161354    50.9524   5  15   2.1942   1.9113   5.4834  -0.8882  -1.7262   1.9534   0.00    0.0
2024/09/10 12:24:55.000   69.218549455   15.858249470    47.1069   5  15   2.1942   1.9113   5.4837  -0.8882  -1.7262   1.9535   0.00    0.0
2024/09/10 12:24:56.000   69.218611590   15.858374743    47.9383   5  15   2.1943   1.9113   5.4840  -0.8883  -1.7263   1.9536   0.00    0.0
2024/09/10 12:24:57.000   69.218653148   15.858469940    47.9703   5  15   2.1943   1.9112   5.4843  -0.8883  -1.7264   1.9537   0.00    0.0
2024/09/10 12:24:58.000   69.218709427   15.858478542    51.9215   5  15   2.1944   1.9112   5.4846  -0.8883  -1.7265   1.9538   0.00    0.0
2024/09/10 12:24:59.000   69.218757081   15.858565971    51.1112   5  15   2.1944   1.9111   5.4849  -0.8883  -1.7266   1.9539   0.00    0.0
2024/09/10 12:25:00.000   69.218811923   15.858669863    56.1944   5  15   2.1945   1.9111   5.4852  -0.8883  -1.7267   1.9540   0.00    0.0
2024/09/10 12:25:01.000   69.218855711   15.858698476    55.8556   5  15   2.1945   1.9110   5.4855  -0.8883  -1.7268   1.9540   0.00    0.0
2024/09/10 12:25:02.000   69.218893700   15.858860234    50.9990   5  15   2.1945   1.9110   5.4858  -0.8883  -1.7269   1.9541   0.00    0.0
2024/09/10 12:25:03.000   69.218947091   15.858916121    52.5746   5  15   2.1946   1.9110   5.4861  -0.8883  -1.7270   1.9542   0.00    0.0
2024/09/10 12:25:04.000   69.218978641   15.858959283    50.4269   5  15   2.1946   1.9109   5.4863  -0.8883  -1.7270   1.9543   0.00    0.0
2024/09/10 12:25:05.000   69.219034272   15.858996044    53.8781   5  15   2.1947   1.9109   5.4866  -0.8883  -1.7271   1.9544   0.00    0.0
2024/09/10 12:25:06.000   69.219062415   15.859049348    45.7033   5  15   2.1947   1.9108   5.4869  -0.8883  -1.7272   1.9545   0.00    0.0
2024/09/10 12:25:07.000   69.219091449   15.859138554    45.8773   5  15   2.1948   1.9108   5.4872  -0.8883  -1.7273   1.9546   0.00    0.0
2024/09/10 12:25:08.000   69.219131372   15.859046929    45.5959   5  15   2.1948   1.9107   5.4875  -0.8883  -1.7274   1.9546   0.00    0.0
2024/09/10 12:25:09.000   69.219133560   15.859007382    52.4017   5  15   2.1949   1.9107   5.4878  -0.8883  -1.7275   1.9547   0.00    0.0
2024/09/10 12:25:10.000   69.219150892   15.858884658    54.6118   5  15   2.1949   1.9106   5.4881  -0.8883  -1.7275   1.9548   0.00    0.0
2024/09/10 12:25:11.000   69.219131500   15.858872988    51.3105   5  15   2.1949   1.9106   5.4884  -0.8883  -1.7276   1.9549   0.00    0.0
2024/09/10 12:25:12.000   69.219107368   15.858913637    50.2833   5  15   2.1950   1.9106   5.4887  -0.8884  -1.7277   1.9550   0.00    0.0
2024/09/10 12:25:13.000   69.219101851   15.858924538    49.5802   5  15   2.1950   1.9105   5.4890  -0.8884  -1.7278   1.9551   0.00    0.0
2024/09/10 12:25:14.000   69.219066942   15.858906478    52.7763   5  15   2.1951   1.9105   5.4893  -0.8884  -1.7279   1.9552   0.00    0.0
2024/09/10 12:25:15.000   69.219028794   15.858859066    56.4237   5  15   2.1951   1.9104   5.4896  -0.8884  -1.7280   1.9553   0.00    0.0
2024/09/10 12:25:16.000   69.218989017   15.858816930    58.9622   5  15   2.1952   1.9104   5.4899  -0.8884  -1.7280   1.9554   0.00    0.0
2024/09/10 12:25:17.000   69.218936172   15.858766880    61.8230   5  15   2.1952   1.9103   5.4902  -0.8884  -1.7281   1.9554   0.00    0.0
2024/09/10 12:25:18.000   69.218847671   15.858707167    63.4934   5  15   2.1953   1.9103   5.4904  -0.8884  -1.7282   1.9555   0.00    0.0
2024/09/10 12:25:19.000   69.218784996   15.858511800    64.2451   5  15   2.1953   1.9102   5.4907  -0.8884  -1.7283   1.9556   0.00    0.0
2024/09/10 12:25:20.000   69.218692635   15.858342680    63.9628   5  15   2.1954   1.9102   5.4910  -0.8884  -1.7284   1.9557   0.00    0.0
2024/09/10 12:25:21.000   69.218612792   15.858302282    69.1611   5  14   2.2467   1.9770   5.5950  -0.7390  -1.5623   2.0825   0.00    0.0
2024/09/10 12:25:22.000   69.218530274   15.858084245    81.0165   5  14   2.2467   1.9770   5.5952  -0.7390  -1.5625   2.0825   0.00    0.0
2024/09/10 12:25:23.000   69.218341208   15.857866951    63.6846   5  14   2.4549   1.9119   5.8983  -0.8354  -1.6760   2.4878   0.00    0.0
2024/09/10 12:25:26.000   69.217928926   15.857263771    61.9222   5  14   2.3955   1.9251   5.9194  -0.7475  -1.5676   2.4374   0.00    0.0
2024/09/10 12:25:27.000   69.217750953   15.857097910    54.2094   5  15   2.1957   1.9099   5.4930  -0.8885  -1.7289   1.9564   0.00    0.0
2024/09/10 12:25:28.000   69.217625892   15.856926063    53.3216   5  15   2.1957   1.9099   5.4933  -0.8885  -1.7290   1.9565   0.00    0.0
2024/09/10 12:25:29.000   69.217485442   15.856763085    51.6238   5  15   2.1958   1.9098   5.4936  -0.8885  -1.7290   1.9566   0.00    0.0
2024/09/10 12:25:30.000   69.217354389   15.856600533    47.0212   5  15   2.1958   1.9098   5.4939  -0.8885  -1.7291   1.9567   0.00    0.0
2024/09/10 12:25:31.000   69.217263737   15.856476133    48.6627   5  15   2.1959   1.9097   5.4941  -0.8885  -1.7292   1.9568   0.00    0.0
2024/09/10 12:25:32.000   69.217167974   15.856332764    47.6189   5  15   2.1959   1.9097   5.4944  -0.8886  -1.7293   1.9569   0.00    0.0
2024/09/10 12:25:33.000   69.217069860   15.856271141    40.9186   5  15   2.1960   1.9096   5.4947  -0.8886  -1.7294   1.9570   0.00    0.0
2024/09/10 12:25:34.000   69.216988382   15.856196911    45.8142   5  15   2.1960   1.9096   5.4950  -0.8886  -1.7294   1.9570   0.00    0.0
2024/09/10 12:25:35.000   69.216911132   15.856082242    45.9220   5  15   2.1961   1.9095   5.4953  -0.8886  -1.7295   1.9571   0.00    0.0
2024/09/10 12:25:36.000   69.216824416   15.856041380    48.0437   5  15   2.1961   1.9095   5.4956  -0.8886  -1.7296   1.9572   0.00    0.0
2024/09/10 12:25:37.000   69.216707190   15.855989309    45.6980   5  15   2.1962   1.9095   5.4958  -0.8886  -1.7297   1.9573   0.00    0.0
2024/09/10 12:25:38.000   69.216607675   15.855951154    45.2490   5  15   2.1962   1.9094   5.4961  -0.8886  -1.7297   1.9574   0.00    0.0
2024/09/10 12:25:39.000   69.216516024   15.855928603    50.8071   5  15   2.1963   1.9094   5.4964  -0.8886  -1.7298   1.9575   0.00    0.0
2024/09/10 12:25:40.000   69.216428759   15.856080070    51.9239   5  14   2.2471   1.9764   5.5975  -0.7397  -1.5661   2.0820   0.00    0.0
2024/09/10 12:25:41.000   69.216329086   15.856094740    51.6606   5  15   2.1964   1.9093   5.4970  -0.8886  -1.7300   1.9577   0.00    0.0
2024/09/10 12:25:42.000   69.216229162   15.856151405    52.0956   5  15   2.1964   1.9092   5.4972  -0.8887  -1.7301   1.9578   0.00    0.0
2024/09/10 12:25:43.000   69.216150861   15.856178131    53.5529   5  15   2.1965   1.9092   5.4975  -0.8887  -1.7302   1.9579   0.00    0.0
2024/09/10 12:25:44.000   69.216077534   15.856239715    57.1033   5  15   2.1965   1.9091   5.4978  -0.8887  -1.7302   1.9580   0.00    0.0
2024/09/10 12:25:45.000   69.215970248   15.856296761    55.7665   5  15   2.1966   1.9091   5.4981  -0.8887  -1.7303   1.9581   0.00    0.0
2024/09/10 12:25:46.000   69.215876458   15.856336152    53.7058   5  15   2.1966   1.9091   5.4984  -0.8887  -1.7304   1.9582   0.00    0.0
2024/09/10 12:25:47.000   69.215800681   15.856386248    53.6041   5  15   2.1967   1.9090   5.4986  -0.8887  -1.7305   1.9583   0.00    0.0
2024/09/10 12:25:48.000   69.215675181   15.856394734    49.7602   5  15   2.1967   1.9090   5.4989  -0.8887  -1.7306   1.9584   0.00    0.0
2024/09/10 12:25:49.000   69.215608541   15.856441161    56.5824   5  15   2.1968   1.9089   5.4992  -0.8887  -1.7306   1.9585   0.00    0.0
2024/09/10 12:25:50.000   69.215549311   15.856528999    65.9645   5  15   2.1968   1.9089   5.4995  -0.8887  -1.7307   1.9586   0.00    0.0
2024/09/10 12:25:51.000   69.215423455   15.856575236    57.0262   5  15   2.1969   1.9088   5.4998  -0.8887  -1.7308   1.9587   0.00    0.0
2024/09/10 12:25:52.000   69.215321426   15.856607555    49.1196   5  15   2.1969   1.9088   5.5000  -0.8888  -1.7309   1.9588   0.00    0.0
2024/09/10 12:25:53.000   69.215222467   15.856737892    56.2704   5  15   2.1970   1.9088   5.5003  -0.8888  -1.7310   1.9589   0.00    0.0
2024/09/10 12:25:54.000   69.215158589   15.856786874    58.6973   5  15   2.1970   1.9087   5.5006  -0.8888  -1.7310   1.9590   0.00    0.0
2024/09/10 12:25:55.000   69.215051975   15.856783116    58.4010   5  15   2.1971   1.9087   5.5009  -0.8888  -1.7311   1.9591   0.00    0.0
2024/09/10 12:25:56.000   69.214948794   15.856843599    60.2308   5  15   2.1971   1.9086   5.5011  -0.8888  -1.7312   1.9592   0.00    0.0
2024/09/10 12:25:57.000   69.214835439   15.856923345    59.7629   5  15   2.1972   1.9086   5.5014  -0.8888  -1.7313   1.9592   0.00    0.0
2024/09/10 12:25:58.000   69.214735551   15.857025734    54.2713   5  15   2.1973   1.9085   5.5017  -0.8888  -1.7314   1.9593   0.00    0.0
2024/09/10 12:25:59.000   69.214657674   15.857032373    63.3015   5  15   2.1973   1.9085   5.5020  -0.8888  -1.7314   1.9594   0.00    0.0
2024/09/10 12:26:00.000   69.214553552   15.857080441    59.8263   5  15   2.1974   1.9085   5.5023  -0.8888  -1.7315   1.9595   0.00    0.0
2024/09/10 12:26:01.000   69.214453117   15.857152375    65.7865   5  15   2.1974   1.9084   5.5025  -0.8888  -1.7316   1.9596   0.00    0.0
2024/09/10 12:26:02.000   69.214330307   15.857217819    60.9261   5  15   2.1975   1.9084   5.5028  -0.8889  -1.7317   1.9597   0.00    0.0
2024/09/10 12:26:03.000   69.214277980   15.857233673    70.6846   5  15   2.1975   1.9083   5.5031  -0.8889  -1.7318   1.9598   0.00    0.0
2024/09/10 12:26:04.000   69.214117233   15.857341478    53.7863   5  14   2.3998   1.9228   5.9426  -0.7501  -1.5717   2.4502   0.00    0.0
2024/09/10 12:26:05.000   69.214016815   15.857309521    53.2685   5  14   2.3999   1.9228   5.9432  -0.7501  -1.5718   2.4505   0.00    0.0
2024/09/10 12:26:06.000   69.213866013   15.857366123    45.3762   5  13   2.8534   1.9304   6.7413  -0.5448  -1.3866   3.3038   0.00    0.0
2024/09/10 12:26:07.000   69.213803524   15.857421156    63.9991   5  14   2.4001   1.9226   5.9445  -0.7503  -1.5720   2.4512   0.00    0.0
2024/09/10 12:26:08.000   69.213643547   15.857518504    46.0113   5  13   2.8541   1.9303   6.7440  -0.5451  -1.3869   3.3056   0.00    0.0
2024/09/10 12:26:09.000   69.213518642   15.857524120    44.3271   5  13   2.8545   1.9302   6.7454  -0.5453  -1.3870   3.3065   0.00    0.0
2024/09/10 12:26:10.000   69.213423875   15.857610653    49.4364   5  13   2.8549   1.9301   6.7468  -0.5455  -1.3872   3.3074   0.00    0.0
2024/09/10 12:26:11.000   69.213387885   15.857616416    62.3036   5  14   2.4006   1.9224   5.9469  -0.7505  -1.5724   2.4525   0.00    0.0
2024/09/10 12:26:12.000   69.213310994   15.857742168    59.3554   5  14   2.4007   1.9223   5.9475  -0.7506  -1.5725   2.4529   0.00    0.0
2024/09/10 12:26:13.000   69.213222652   15.857753430    56.0176   5  14   2.4008   1.9223   5.9481  -0.7507  -1.5726   2.4532   0.00    0.0
2024/09/10 12:26:14.000   69.213129120   15.857758220    60.0237   5  14   2.4009   1.9222   5.9487  -0.7507  -1.5727   2.4535   0.00    0.0
2024/09/10 12:26:15.000   69.213041577   15.857854814    55.4713   5  14   2.4010   1.9222   5.9493  -0.7508  -1.5729   2.4539   0.00    0.0
2024/09/10 12:26:16.000   69.212957956   15.857876493    52.6335   5  14   2.4011   1.9221   5.9499  -0.7509  -1.5730   2.4542   0.00    0.0
2024/09/10 12:26:17.000   69.212889229   15.857920980    58.9755   5  14   2.4013   1.9220   5.9505  -0.7509  -1.5731   2.4546   0.00    0.0
2024/09/10 12:26:18.000   69.212779141   15.857788867    56.6281   5  14   2.4014   1.9220   5.9511  -0.7510  -1.5732   2.4549   0.00    0.0
2024/09/10 12:26:19.000   69.212706991   15.857891002    54.2316   5  14   2.4015   1.9219   5.9517  -0.7511  -1.5733   2.4552   0.00    0.0
2024/09/10 12:26:20.000   69.212716320   15.857946209    61.3425   5  13   2.5054   2.0080   6.1618  -0.3858  -1.2444   2.6771   0.00    0.0
2024/09/10 12:26:21.000   69.212718326   15.857881186    63.5875   5  12   2.5192   2.2335   6.2710  -0.6371  -1.6391   2.7337   0.00    0.0
2024/09/10 12:26:22.000   69.212681828   15.857940552    59.0587   5  12   3.3275   2.0759   7.6876   1.0021   0.9332   4.1511   0.00    0.0
2024/09/10 12:26:23.000   69.212686568   15.857952519    53.7895   5  12   3.3279   2.0758   7.6889   1.0020   0.9329   4.1519   0.00    0.0
2024/09/10 12:26:24.000   69.212617999   15.857896640    36.8301   5  13   2.8598   1.9292   6.7662  -0.5481  -1.3892   3.3200   0.00    0.0
2024/09/10 12:26:25.000   69.212610108   15.858107347    36.4651   5  11   3.3334   2.5020   7.6942   1.1199   0.7663   4.1492   0.00    0.0
2024/09/10 12:26:26.000   69.212603781   15.858109129    43.4314   5  11   3.3338   2.5019   7.6955   1.1201   0.7668   4.1500   0.00    0.0
2024/09/10 12:26:27.000   69.212617951   15.858001951    46.3400   5  12   3.3293   2.0754   7.6942   1.0015   0.9318   4.1552   0.00    0.0
2024/09/10 12:26:28.000   69.212611539   15.858075354    50.8183   5  12   3.3297   2.0753   7.6956   1.0014   0.9315   4.1560   0.00    0.0
2024/09/10 12:26:29.000   69.212609364   15.858051583    46.3488   5  13   2.8616   1.9288   6.7731  -0.5490  -1.3900   3.3245   0.00    0.0
2024/09/10 12:26:30.000   69.212670047   15.858028973    63.8031   5  13   2.8619   1.9287   6.7745  -0.5492  -1.3901   3.3254   0.00    0.0
2024/09/10 12:26:31.000   69.212705627   15.858025216    79.3918   5  12   3.3308   2.0750   7.6995   1.0010   0.9307   4.1584   0.00    0.0
2024/09/10 12:26:32.000   69.212550045   15.857951005    35.2008   5  11   3.4258   2.2530   8.0906   0.5475  -1.1455   4.3913   0.00    0.0
2024/09/10 12:26:33.000   69.212494825   15.857895582    24.2522   5  10   3.3491   2.3929   7.8720   1.1616   1.1789   4.1415   0.00    0.0
2024/09/10 12:26:34.000   69.212519161   15.857905037    42.1656   5  11   3.3479   2.3754   7.7037   1.1745   0.9593   4.1627   0.00    0.0
2024/09/10 12:26:35.000   69.212468604   15.857987044    30.2056   5  12   3.3322   2.0746   7.7048   1.0005   0.9295   4.1617   0.00    0.0
2024/09/10 12:26:36.000   69.212509642   15.858024257    41.7096   5  12   3.3326   2.0746   7.7062   1.0004   0.9292   4.1625   0.00    0.0
2024/09/10 12:26:37.000   69.212509148   15.858106354    55.0838   5  12   3.3329   2.0745   7.7075   1.0003   0.9289   4.1633   0.00    0.0
2024/09/10 12:26:38.000   69.212503194   15.858122584    51.3256   5  12   3.3333   2.0744   7.7088   1.0002   0.9286   4.1641   0.00    0.0
2024/09/10 12:26:39.000   69.212505126   15.858075502    52.2241   5  12   3.3337   2.0743   7.7101   1.0000   0.9284   4.1649   0.00    0.0
2024/09/10 12:26:40.000   69.212494525   15.858173711    48.6677   5  12   3.3340   2.0742   7.7115   0.9999   0.9281   4.1657   0.00    0.0
2024/09/10 12:26:41.000   69.212486512   15.858229971    47.7072   5  13   2.8659   1.9280   6.7899  -0.5512  -1.3917   3.3353   0.00    0.0
2024/09/10 12:26:42.000   69.212477211   15.858187657    47.0072   5  13   2.8662   1.9279   6.7913  -0.5513  -1.3919   3.3362   0.00    0.0
2024/09/10 12:26:43.000   69.212480368   15.858214496    47.4931   5  14   2.4041   1.9205   5.9663  -0.7526  -1.5758   2.4631   0.00    0.0
2024/09/10 12:26:44.000   69.212492486   15.858107303    47.9509   5  14   2.4043   1.9204   5.9669  -0.7527  -1.5759   2.4635   0.00    0.0
2024/09/10 12:26:45.000   69.212509514   15.858147670    49.9252   5  14   2.4044   1.9204   5.9675  -0.7527  -1.5760   2.4638   0.00    0.0
2024/09/10 12:26:46.000   69.212503275   15.858190437    49.2017   5  14   2.4045   1.9203   5.9681  -0.7528  -1.5761   2.4641   0.00    0.0
2024/09/10 12:26:47.000   69.212525502   15.858123411    52.6741   5  14   2.4046   1.9203   5.9687  -0.7528  -1.5762   2.4644   0.00    0.0
2024/09/10 12:26:48.000   69.212518687   15.858137478    50.7222   5  14   2.4047   1.9202   5.9693  -0.7529  -1.5763   2.4648   0.00    0.0
2024/09/10 12:26:49.000   69.212531833   15.858057424    58.9834   5  14   2.4048   1.9202   5.9699  -0.7530  -1.5764   2.4651   0.00    0.0
2024/09/10 12:26:50.000   69.212533155   15.858070439    55.5658   5  14   2.4049   1.9201   5.9705  -0.7530  -1.5765   2.4654   0.00    0.0
2024/09/10 12:26:51.000   69.212532402   15.858105553    55.2690   5  14   2.4050   1.9200   5.9711  -0.7531  -1.5766   2.4658   0.00    0.0
2024/09/10 12:26:52.000   69.212527642   15.858129406    56.3773   5  14   2.4051   1.9200   5.9717  -0.7532  -1.5767   2.4661   0.00    0.0
2024/09/10 12:26:53.000   69.212522945   15.858119218    55.6600   5  14   2.4052   1.9199   5.9723  -0.7532  -1.5768   2.4664   0.00    0.0
2024/09/10 12:26:54.000   69.212519228   15.858125399    55.6808   5  14   2.4054   1.9199   5.9729  -0.7533  -1.5769   2.4667   0.00    0.0
2024/09/10 12:26:55.000   69.212512302   15.858131091    54.0987   5  14   2.4055   1.9198   5.9735  -0.7533  -1.5770   2.4671   0.00    0.0
2024/09/10 12:26:56.000   69.212536600   15.858122086    54.7956   5  14   2.4056   1.9197   5.9741  -0.7534  -1.5771   2.4674   0.00    0.0
2024/09/10 12:26:57.000   69.212537114   15.858144106    59.2876   5  14   2.4057   1.9197   5.9747  -0.7535  -1.5772   2.4677   0.00    0.0
2024/09/10 12:26:58.000   69.212530237   15.858114189    56.4551   5  13   2.5081   2.0058   6.1773  -0.3943  -1.2557   2.6836   0.00    0.0
2024/09/10 12:26:59.000   69.212538313   15.858172464    56.7431   5  14   2.4059   1.9196   5.9759  -0.7536  -1.5774   2.4684   0.00    0.0
2024/09/10 12:27:00.000   69.212520178   15.858107340    57.6766   5  14   2.4060   1.9195   5.9765  -0.7537  -1.5775   2.4687   0.00    0.0
2024/09/10 12:27:01.000   69.212531868   15.858093617    62.8558   5  14   2.4061   1.9194   5.9771  -0.7537  -1.5776   2.4690   0.00    0.0
2024/09/10 12:27:02.000   69.212518714   15.858125724    58.9708   5  14   2.4062   1.9194   5.9777  -0.7538  -1.5777   2.4694   0.00    0.0
2024/09/10 12:27:03.000   69.212508973   15.858149843    52.8760   5  14   2.4064   1.9193   5.9783  -0.7538  -1.5778   2.4697   0.00    0.0
2024/09/10 12:27:04.000   69.212515075   15.858176710    54.7207   5  14   2.4065   1.9193   5.9789  -0.7539  -1.5779   2.4700   0.00    0.0
2024/09/10 12:27:05.000   69.212514197   15.858196760    53.4162   5  14   2.4066   1.9192   5.9795  -0.7540  -1.5780   2.4704   0.00    0.0
2024/09/10 12:27:06.000   69.212538309   15.858152181    59.0156   5  14   2.4067   1.9192   5.9801  -0.7540  -1.5781   2.4707   0.00    0.0
2024/09/10 12:27:07.000   69.212528293   15.858127516    56.2416   5  13   2.8751   1.9262   6.8263  -0.5558  -1.3955   3.3588   0.00    0.0
2024/09/10 12:27:08.000   69.212527223   15.858083078    57.5040   5  14   2.4069   1.9190   5.9813  -0.7541  -1.5783   2.4713   0.00    0.0
2024/09/10 12:27:09.000   69.212513520   15.858036006    58.7103   5  13   2.8759   1.9260   6.8291  -0.5562  -1.3958   3.3606   0.00    0.0
2024/09/10 12:27:10.000   69.212572313   15.858113852    53.7937   5  14   2.4071   1.9189   5.9825  -0.7543  -1.5785   2.4720   0.00    0.0
2024/09/10 12:27:11.000   69.212561213   15.858154799    59.3179   5  14   2.4072   1.9189   5.9831  -0.7543  -1.5786   2.4723   0.00    0.0
2024/09/10 12:27:12.000   69.212551473   15.858163120    58.3856   5  14   2.4074   1.9188   5.9837  -0.7544  -1.5787   2.4726   0.00    0.0
2024/09/10 12:27:13.000   69.212553556   15.858064764    68.4844   5  14   2.4075   1.9187   5.9843  -0.7545  -1.5788   2.4730   0.00    0.0
2024/09/10 12:27:14.000   69.212529123   15.858128229    69.7470   5  14   2.4076   1.9187   5.9849  -0.7545  -1.5789   2.4733   0.00    0.0
2024/09/10 12:27:15.000   69.212385365   15.858163429    37.2159   5  12   3.3468   2.0709   7.7579   0.9956   0.9177   4.1942   0.00    0.0
2024/09/10 12:27:16.000   69.212401915   15.858187585    42.5776   5  13   2.8784   1.9256   6.8390  -0.5574  -1.3968   3.3670   0.00    0.0
2024/09/10 12:27:17.000   69.212407333   15.858194597    48.0073   5  13   2.8788   1.9255   6.8404  -0.5576  -1.3969   3.3679   0.00    0.0
2024/09/10 12:27:18.000   69.212388241   15.858263245    50.2142   5  13   2.8791   1.9254   6.8418  -0.5578  -1.3971   3.3688   0.00    0.0
2024/09/10 12:27:19.000   69.212389614   15.858150611    49.8884   5  14   2.4081   1.9184   5.9879  -0.7548  -1.5794   2.4750   0.00    0.0
2024/09/10 12:27:20.000   69.212466901   15.858203809    59.1913   5  13   2.5096   2.0045   6.1860  -0.3992  -1.2622   2.6873   0.00    0.0
2024/09/10 12:27:21.000   69.212424282   15.858250827    53.9966   5  14   2.4084   1.9183   5.9891  -0.7549  -1.5796   2.4756   0.00    0.0
2024/09/10 12:27:22.000   69.212444848   15.858164346    53.6438   5  15   2.2014   1.9049   5.5242  -0.8893  -1.7374   1.9668   0.00    0.0
2024/09/10 12:27:23.000   69.212422339   15.858205906    54.9905   5  15   2.2015   1.9048   5.5244  -0.8893  -1.7375   1.9669   0.00    0.0
2024/09/10 12:27:24.000   69.212378282   15.858292282    52.0187   5  15   2.2015   1.9048   5.5247  -0.8893  -1.7376   1.9670   0.00    0.0
2024/09/10 12:27:25.000   69.212394035   15.858363813    57.1229   5  15   2.2016   1.9047   5.5250  -0.8893  -1.7376   1.9671   0.00    0.0
2024/09/10 12:27:26.000   69.212386515   15.858418468    55.0520   5  15   2.2016   1.9047   5.5252  -0.8893  -1.7377   1.9672   0.00    0.0
2024/09/10 12:27:27.000   69.212397397   15.858383705    54.7299   5  14   2.3498   1.9433   5.6687  -0.6886  -1.8730   1.6824   0.00    0.0
2024/09/10 12:27:28.000   69.212399330   15.858395501    51.3108   5  14   2.3499   1.9432   5.6690  -0.6886  -1.8731   1.6824   0.00    0.0
2024/09/10 12:27:29.000   69.212417635   15.858450755    51.1813   5  14   2.3499   1.9432   5.6693  -0.6887  -1.8731   1.6824   0.00    0.0
2024/09/10 12:27:30.000   69.212409730   15.858496429    44.8206   5  14   2.3500   1.9431   5.6696  -0.6887  -1.8732   1.6825   0.00    0.0
2024/09/10 12:27:31.000   69.212410204   15.858434782    48.1822   5  14   2.3501   1.9431   5.6699  -0.6887  -1.8732   1.6825   0.00    0.0
2024/09/10 12:27:32.000   69.212416981   15.858475815    50.7227   5  15   2.2019   1.9044   5.5267  -0.8893  -1.7381   1.9677   0.00    0.0
2024/09/10 12:27:33.000   69.212429733   15.858418463    59.6828   5  14   2.3502   1.9429   5.6704  -0.6888  -1.8733   1.6826   0.00    0.0
2024/09/10 12:27:34.000   69.212411479   15.858381057    64.3349   5  14   2.3503   1.9429   5.6707  -0.6889  -1.8734   1.6826   0.00    0.0
2024/09/10 12:27:35.000   69.212405275   15.858406763    61.5884   5  14   2.3503   1.9428   5.6710  -0.6889  -1.8734   1.6827   0.00    0.0
2024/09/10 12:27:36.000   69.212402857   15.858397094    65.6712   5  14   2.3504   1.9428   5.6713  -0.6889  -1.8735   1.6827   0.00    0.0
2024/09/10 12:27:37.000   69.212397692   15.858416775    66.2367   5  14   2.3505   1.9427   5.6716  -0.6890  -1.8735   1.6827   0.00    0.0
2024/09/10 12:27:38.000   69.212389643   15.858416780    67.7296   5  15   2.2022   1.9041   5.5283  -0.8893  -1.7385   1.9682   0.00    0.0
2024/09/10 12:27:39.000   69.212390105   15.858414324    66.0734   5  15   2.2023   1.9041   5.5285  -0.8893  -1.7385   1.9683   0.00    0.0
2024/09/10 12:27:40.000   69.212416675   15.858435901    63.4180   5  14   2.3507   1.9425   5.6724  -0.6891  -1.8737   1.6828   0.00    0.0
2024/09/10 12:27:41.000   69.212408181   15.858453273    57.4301   5  15   2.2024   1.9040   5.5290  -0.8893  -1.7387   1.9684   0.00    0.0
2024/09/10 12:27:42.000   69.212415864   15.858457336    55.5319   5  14   2.3508   1.9424   5.6730  -0.6891  -1.8737   1.6829   0.00    0.0
2024/09/10 12:27:43.000   69.212412097   15.858450112    62.4955   5  14   2.3509   1.9423   5.6733  -0.6892  -1.8738   1.6829   0.00    0.0
2024/09/10 12:27:44.000   69.212439347   15.858396765    61.1835   5  14   2.3509   1.9423   5.6735  -0.6892  -1.8738   1.6830   0.00    0.0
2024/09/10 12:27:45.000   69.212420102   15.858440818    54.1928   5  14   2.3510   1.9422   5.6738  -0.6893  -1.8739   1.6830   0.00    0.0
2024/09/10 12:27:46.000   69.212410302   15.858448044    55.8150   5  14   2.3511   1.9422   5.6741  -0.6893  -1.8739   1.6831   0.00    0.0
2024/09/10 12:27:47.000   69.212419663   15.858408937    59.4854   5  14   2.3511   1.9421   5.6744  -0.6893  -1.8740   1.6831   0.00    0.0
2024/09/10 12:27:48.000   69.212422036   15.858482112    53.5269   5  14   2.3512   1.9420   5.6747  -0.6894  -1.8740   1.6831   0.00    0.0
2024/09/10 12:27:49.000   69.212411051   15.858419447    55.9086   5  14   2.3513   1.9420   5.6750  -0.6894  -1.8741   1.6832   0.00    0.0
2024/09/10 12:27:50.000   69.212425749   15.858413650    57.0642   5  14   2.3513   1.9419   5.6752  -0.6894  -1.8741   1.6832   0.00    0.0
2024/09/10 12:27:51.000   69.212434277   15.858434996    58.8428   5  14   2.3514   1.9419   5.6755  -0.6895  -1.8742   1.6832   0.00    0.0
2024/09/10 12:27:52.000   69.212441512   15.858430445    59.0886   5  14   2.3515   1.9418   5.6758  -0.6895  -1.8742   1.6833   0.00    0.0
2024/09/10 12:27:53.000   69.212410759   15.858429477    53.8070   5  14   2.3516   1.9417   5.6761  -0.6895  -1.8743   1.6833   0.00    0.0
2024/09/10 12:27:54.000   69.212406687   15.858474247    56.7890   5  14   2.3516   1.9417   5.6763  -0.6896  -1.8743   1.6833   0.00    0.0
2024/09/10 12:27:55.000   69.212438962   15.858427924    53.6276   5  14   2.3517   1.9416   5.6766  -0.6896  -1.8743   1.6834   0.00    0.0
2024/09/10 12:27:56.000   69.212473570   15.858423208    49.6363   5  14   2.3518   1.9416   5.6769  -0.6896  -1.8744   1.6834   0.00    0.0
2024/09/10 12:27:57.000   69.212463684   15.858408709    58.3336   5  14   2.3518   1.9415   5.6772  -0.6897  -1.8744   1.6834   0.00    0.0
2024/09/10 12:27:58.000   69.212430713   15.858430501    59.6911   5  14   2.3519   1.9414   5.6775  -0.6897  -1.8745   1.6835   0.00    0.0
2024/09/10 12:27:59.000   69.212425089   15.858420707    58.8456   5  14   2.3520   1.9414   5.6777  -0.6898  -1.8745   1.6835   0.00    0.0
2024/09/10 12:28:00.000   69.212438743   15.858393074    59.6275   5  14   2.3520   1.9413   5.6780  -0.6898  -1.8746   1.6836   0.00    0.0
2024/09/10 12:28:01.000   69.212448779   15.858406590    60.0465   5  14   2.3521   1.9413   5.6783  -0.6898  -1.8746   1.6836   0.00    0.0
2024/09/10 12:28:02.000   69.212433588   15.858442958    59.9796   5  14   2.3522   1.9412   5.6786  -0.6899  -1.8747   1.6836   0.00    0.0
2024/09/10 12:28:03.000   69.212455280   15.858420802    58.1639   5  14   2.3522   1.9411   5.6788  -0.6899  -1.8747   1.6837   0.00    0.0
2024/09/10 12:28:04.000   69.212448238   15.858417060    58.7605   5  14   2.3523   1.9411   5.6791  -0.6899  -1.8747   1.6837   0.00    0.0
2024/09/10 12:28:05.000   69.212420837   15.858453029    61.7566   5  14   2.3524   1.9410   5.6794  -0.6900  -1.8748   1.6837   0.00    0.0
2024/09/10 12:28:06.000   69.212425164   15.858480404    54.6431   5  14   2.3524   1.9410   5.6797  -0.6900  -1.8748   1.6838   0.00    0.0
2024/09/10 12:28:07.000   69.212425970   15.858454312    53.6074   5  14   2.3525   1.9409   5.6799  -0.6900  -1.8749   1.6838   0.00    0.0
2024/09/10 12:28:08.000   69.212404016   15.858440895    54.2470   5  15   2.2037   1.9028   5.5357  -0.8894  -1.7403   1.9707   0.00    0.0
2024/09/10 12:28:09.000   69.212421526   15.858455828    59.0809   5  15   2.2038   1.9028   5.5359  -0.8894  -1.7404   1.9708   0.00    0.0
2024/09/10 12:28:10.000   69.212425938   15.858429896    63.2827   5  15   2.2038   1.9027   5.5362  -0.8894  -1.7404   1.9709   0.00    0.0
2024/09/10 12:28:11.000   69.212418555   15.858447674    61.0251   5  15   2.2039   1.9027   5.5364  -0.8894  -1.7405   1.9710   0.00    0.0
2024/09/10 12:28:12.000   69.212393529   15.858483867    57.4400   5  15   2.2039   1.9026   5.5367  -0.8894  -1.7405   1.9711   0.00    0.0
2024/09/10 12:28:13.000   69.212394428   15.858487240    58.1673   5  15   2.2040   1.9026   5.5369  -0.8894  -1.7406   1.9711   0.00    0.0
2024/09/10 12:28:14.000   69.212402403   15.858463381    56.9984   5  15   2.2040   1.9026   5.5372  -0.8894  -1.7406   1.9712   0.00    0.0
2024/09/10 12:28:15.000   69.212387619   15.858489865    67.8454   5  15   2.2041   1.9025   5.5374  -0.8894  -1.7407   1.9713   0.00    0.0
2024/09/10 12:28:16.000   69.212378980   15.858503213    59.5500   5  15   2.2041   1.9025   5.5376  -0.8894  -1.7408   1.9714   0.00    0.0
2024/09/10 12:28:17.000   69.212372483   15.858502126    60.4099   5  15   2.2042   1.9024   5.5379  -0.8894  -1.7408   1.9715   0.00    0.0
2024/09/10 12:28:18.000   69.212387020   15.858477218    57.7622   5  15   2.2042   1.9024   5.5381  -0.8894  -1.7409   1.9716   0.00    0.0
2024/09/10 12:28:19.000   69.212380528   15.858468396    61.8805   5  15   2.2043   1.9023   5.5384  -0.8894  -1.7409   1.9717   0.00    0.0
2024/09/10 12:28:20.000   69.212407441   15.858491213    70.1978   5  15   2.2043   1.9023   5.5386  -0.8894  -1.7410   1.9717   0.00    0.0
2024/09/10 12:28:21.000   69.212395392   15.858455224    66.9181   5  15   2.2044   1.9022   5.5388  -0.8894  -1.7410   1.9718   0.00    0.0
2024/09/10 12:28:22.000   69.212388723   15.858475847    61.1385   5  15   2.2044   1.9022   5.5391  -0.8894  -1.7411   1.9719   0.00    0.0
2024/09/10 12:28:23.000   69.212379381   15.858491625    56.5567   5  15   2.2045   1.9022   5.5393  -0.8894  -1.7412   1.9720   0.00    0.0
2024/09/10 12:28:24.000   69.212379966   15.858548536    50.8249   5  15   2.2045   1.9021   5.5396  -0.8894  -1.7412   1.9721   0.00    0.0
2024/09/10 12:28:25.000   69.212386301   15.858492809    46.4056   5  15   2.2046   1.9021   5.5398  -0.8894  -1.7413   1.9722   0.00    0.0
2024/09/10 12:28:26.000   69.212383468   15.858430853    51.1225   5  15   2.2047   1.9020   5.5400  -0.8894  -1.7413   1.9722   0.00    0.0
2024/09/10 12:28:27.000   69.212378848   15.858484594    50.2030   5  15   2.2047   1.9020   5.5403  -0.8894  -1.7414   1.9723   0.00    0.0
2024/09/10 12:28:28.000   69.212400611   15.858456113    51.8418   5  15   2.2048   1.9019   5.5405  -0.8894  -1.7414   1.9724   0.00    0.0
2024/09/10 12:28:29.000   69.212390886   15.858449842    64.8017   5  15   2.2048   1.9019   5.5407  -0.8894  -1.7415   1.9725   0.00    0.0
2024/09/10 12:28:30.000   69.212371786   15.858485733    55.9057   5  15   2.2049   1.9018   5.5410  -0.8894  -1.7416   1.9726   0.00    0.0
2024/09/10 12:28:31.000   69.212381817   15.858462255    56.6211   5  15   2.2049   1.9018   5.5412  -0.8894  -1.7416   1.9727   0.00    0.0
2024/09/10 12:28:32.000   69.212381721   15.858486064    53.3088   5  15   2.2050   1.9018   5.5415  -0.8894  -1.7417   1.9727   0.00    0.0
2024/09/10 12:28:33.000   69.212370763   15.858494857    50.6080   5  15   2.2050   1.9017   5.5417  -0.8894  -1.7417   1.9728   0.00    0.0
2024/09/10 12:28:34.000   69.212373332   15.858513654    52.8183   5  15   2.2051   1.9017   5.5419  -0.8894  -1.7418   1.9729   0.00    0.0
2024/09/10 12:28:35.000   69.212387824   15.858492470    49.8726   5  14   2.2205   2.1493   5.7145  -1.0259  -2.1045   2.0631   0.00    0.0
2024/09/10 12:28:36.000   69.212401790   15.858510451    36.8010   5   6   3.6873   4.3139  10.1715  -0.8734  -5.2805   3.1721   0.00    0.0
2024/09/10 12:28:37.000   69.212413994   15.858616820    42.5693   5  14   2.3546   1.9391   5.6880  -0.6911  -1.8761   1.6849   0.00    0.0
2024/09/10 12:28:38.000   69.212424255   15.858681023    42.1453   5  12   2.3953   2.0096   6.3927  -0.4956  -1.8656   1.6997   0.00    0.0
2024/09/10 12:28:39.000   69.212389485   15.858670214    50.7308   5  11   2.9695   2.0463   6.6051  -0.9613  -1.6850  -0.1586   0.00    0.0
2024/09/10 12:28:40.000   69.212381820   15.858651836    46.7408   5  11   2.9695   2.0463   6.6055  -0.9615  -1.6851  -0.1604   0.00    0.0
2024/09/10 12:28:41.000   69.212423126   15.858647345    45.8229   5  11   2.9696   2.0463   6.6059  -0.9617  -1.6851  -0.1623   0.00    0.0
2024/09/10 12:28:42.000   69.212394475   15.858676967    52.7789   5  12   2.9313   1.9822   6.5802  -1.0803  -1.7713  -0.5529   0.00    0.0
2024/09/10 12:28:43.000   69.212366692   15.858696214    53.3739   5  12   2.9314   1.9821   6.5807  -1.0805  -1.7712  -0.5529   0.00    0.0
2024/09/10 12:28:44.000   69.212403046   15.858577683    42.7875   5  14   2.5890   1.9678   5.5728  -1.2162  -1.6583   1.7699   0.00    0.0
2024/09/10 12:28:45.000   69.212392771   15.858493954    53.5307   5  15   2.2056   1.9012   5.5445  -0.8894  -1.7424   1.9738   0.00    0.0
2024/09/10 12:28:46.000   69.212393402   15.858485694    52.2338   5  15   2.2057   1.9011   5.5447  -0.8894  -1.7424   1.9739   0.00    0.0
2024/09/10 12:28:47.000   69.212396905   15.858495794    54.6489   5  15   2.2057   1.9011   5.5450  -0.8894  -1.7425   1.9740   0.00    0.0
2024/09/10 12:28:48.000   69.212380523   15.858518762    51.8116   5  15   2.2058   1.9010   5.5452  -0.8894  -1.7425   1.9741   0.00    0.0
2024/09/10 12:28:49.000   69.212380014   15.858459700    55.4679   5  15   2.2058   1.9010   5.5454  -0.8894  -1.7426   1.9742   0.00    0.0
2024/09/10 12:28:50.000   69.212387321   15.858475601    50.6883   5  15   2.2059   1.9010   5.5457  -0.8894  -1.7426   1.9743   0.00    0.0
2024/09/10 12:28:51.000   69.212392242   15.858456024    55.6011   5  15   2.2059   1.9009   5.5459  -0.8894  -1.7427   1.9743   0.00    0.0
2024/09/10 12:28:52.000   69.212367925   15.858515158    49.1275   5  15   2.2060   1.9009   5.5461  -0.8894  -1.7427   1.9744   0.00    0.0
2024/09/10 12:28:53.000   69.212373652   15.858498566    50.8802   5  15   2.2060   1.9008   5.5464  -0.8894  -1.7428   1.9745   0.00    0.0
2024/09/10 12:28:54.000   69.212378093   15.858488965    53.6042   5  15   2.2061   1.9008   5.5466  -0.8894  -1.7429   1.9746   0.00    0.0
2024/09/10 12:28:55.000   69.212382322   15.858478458    53.6876   5  15   2.2061   1.9007   5.5468  -0.8894  -1.7429   1.9747   0.00    0.0
2024/09/10 12:28:56.000   69.212380883   15.858504020    46.8939   5  15   2.2062   1.9007   5.5470  -0.8894  -1.7430   1.9748   0.00    0.0
2024/09/10 12:28:57.000   69.212370384   15.858499428    46.5766   5  15   2.2062   1.9006   5.5473  -0.8894  -1.7430   1.9748   0.00    0.0
2024/09/10 12:28:58.000   69.212370945   15.858498822    45.7338   5  15   2.2063   1.9006   5.5475  -0.8894  -1.7431   1.9749   0.00    0.0
2024/09/10 12:28:59.000   69.212383917   15.858471419    47.4354   5  15   2.2064   1.9005   5.5477  -0.8894  -1.7431   1.9750   0.00    0.0
2024/09/10 12:29:00.000   69.212383525   15.858490060    44.8469   5  15   2.2064   1.9005   5.5480  -0.8894  -1.7432   1.9751   0.00    0.0
2024/09/10 12:29:01.000   69.212387716   15.858487506    44.7034   5  15   2.2065   1.9005   5.5482  -0.8894  -1.7432   1.9752   0.00    0.0
2024/09/10 12:29:02.000   69.212389107   15.858450184    48.6374   5  15   2.2065   1.9004   5.5484  -0.8894  -1.7433   1.9753   0.00    0.0
2024/09/10 12:29:03.000   69.212365828   15.858497721    45.4630   5  15   2.2066   1.9004   5.5486  -0.8894  -1.7433   1.9753   0.00    0.0
2024/09/10 12:29:04.000   69.212375880   15.858493664    46.0605   5  15   2.2066   1.9003   5.5489  -0.8894  -1.7434   1.9754   0.00    0.0
2024/09/10 12:29:05.000   69.212376755   15.858559556    46.3544   5  15   2.2067   1.9003   5.5491  -0.8894  -1.7434   1.9755   0.00    0.0
2024/09/10 12:29:06.000   69.212377693   15.858518715    47.9457   5  15   2.2067   1.9002   5.5493  -0.8894  -1.7435   1.9756   0.00    0.0
2024/09/10 12:29:07.000   69.212386357   15.858475979    48.1214   5  15   2.2068   1.9002   5.5495  -0.8894  -1.7435   1.9757   0.00    0.0
